{"type":"FeatureCollection","features":[{"type":"Feature","geometry":{"type":"Point","coordinates":[114.9063,30.3857]},"properties":{"name":"莲花山","id":1,"count":136}},{"type":"Feature","geometry":{"type":"Point","coordinates":[114.8759,30.4131]},"properties":{"name":"鄂州西山风景区","id":2,"count":117}},{"type":"Feature","geometry":{"type":"Point","coordinates":[114.5783,30.2601]},"properties":{"name":"梁子岛生态旅游区","id":3,"count":119}},{"type":"Feature","geometry":{"type":"Point","coordinates":[114.8977,30.4151]},"properties":{"name":"龙蟠矶","id":4,"count":60}},{"type":"Feature","geometry":{"type":"Point","coordinates":[114.5637,30.2346]},"properties":{"name":"梁子湖水岸度假营地景区","id":5,"count":10}},{"type":"Feature","geometry":{"type":"Point","coordinates":[114.8831,30.4163]},"properties":{"name":"鄂州市博物馆","id":6,"count":67}},{"type":"Feature","geometry":{"type":"Point","coordinates":[114.8797,30.3602]},"properties":{"name":"亿邦环球主题乐园","id":7,"count":24}},{"type":"Feature","geometry":{"type":"Point","coordinates":[113.0759,31.346]},"properties":{"name":"京山鸳鸯溪漂流","id":8,"count":480}},{"type":"Feature","geometry":{"type":"Point","coordinates":[113.0863,31.3148]},"properties":{"name":"美人谷","id":9,"count":1120}},{"type":"Feature","geometry":{"type":"Point","coordinates":[112.6441,31.2151]},"properties":{"name":"明显陵","id":10,"count":1140}},{"type":"Feature","geometry":{"type":"Point","coordinates":[112.9636,31.4196]},"properties":{"name":"黄仙洞","id":11,"count":630}},{"type":"Feature","geometry":{"type":"Point","coordinates":[114.309,30.5503]},"properties":{"name":"黄鹤楼","id":12,"count":38441}},{"type":"Feature","geometry":{"type":"Point","coordinates":[112.0826,30.9618]},"properties":{"name":"漳河风景名胜区","id":13,"count":503}},{"type":"Feature","geometry":{"type":"Point","coordinates":[112.0857,30.9699]},"properties":{"name":"阳光沙滩","id":14,"count":219}},{"type":"Feature","geometry":{"type":"Point","coordinates":[113.0441,30.9798]},"properties":{"name":"空山洞","id":15,"count":348}},{"type":"Feature","geometry":{"type":"Point","coordinates":[112.1979,31.0332]},"properties":{"name":"龙泉公园","id":16,"count":6}},{"type":"Feature","geometry":{"type":"Point","coordinates":[112.8194,31.109]},"properties":{"name":"大口国家森林公园","id":17,"count":43}},{"type":"Feature","geometry":{"type":"Point","coordinates":[113.1086,31.3587]},"properties":{"name":"绿林古兵寨","id":18,"count":145}},{"type":"Feature","geometry":{"type":"Point","coordinates":[114.2844,30.6703]},"properties":{"name":"武汉海昌极地海洋公园","id":19,"count":13183}},{"type":"Feature","geometry":{"type":"Point","coordinates":[112.9129,30.9237]},"properties":{"name":"太子山王莽洞景区","id":20,"count":121}},{"type":"Feature","geometry":{"type":"Point","coordinates":[113.1083,31.3585]},"properties":{"name":"绿林山","id":21,"count":61}},{"type":"Feature","geometry":{"type":"Point","coordinates":[112.8045,31.1149]},"properties":{"name":"汇源农谷体验园","id":22,"count":63}},{"type":"Feature","geometry":{"type":"Point","coordinates":[112.0208,31.0383]},"properties":{"name":"观音岛","id":23,"count":30}},{"type":"Feature","geometry":{"type":"Point","coordinates":[112.0759,30.9883]},"properties":{"name":"爱飞客航空小镇","id":24,"count":27}},{"type":"Feature","geometry":{"type":"Point","coordinates":[112.3481,31.0029]},"properties":{"name":"彭墩乡村世界","id":25,"count":52}},{"type":"Feature","geometry":{"type":"Point","coordinates":[112.6184,31.1913]},"properties":{"name":"莫愁湖","id":26,"count":94}},{"type":"Feature","geometry":{"type":"Point","coordinates":[112.1986,31.0507]},"properties":{"name":"荆楚理工学院","id":27,"count":38}},{"type":"Feature","geometry":{"type":"Point","coordinates":[112.0988,30.9892]},"properties":{"name":"荆门爱飞客极客公园","id":28,"count":11}},{"type":"Feature","geometry":{"type":"Point","coordinates":[112.6246,31.1886]},"properties":{"name":"钟祥博物馆","id":29,"count":41}},{"type":"Feature","geometry":{"type":"Point","coordinates":[112.2048,31.0532]},"properties":{"name":"荆门市博物馆","id":30,"count":26}},{"type":"Feature","geometry":{"type":"Point","coordinates":[112.3129,30.7238]},"properties":{"name":"荆门沙洋油菜花节","id":31,"count":30}},{"type":"Feature","geometry":{"type":"Point","coordinates":[112.867,30.9567]},"properties":{"name":"湖北太子山狩猎文化主题乐园","id":32,"count":14}},{"type":"Feature","geometry":{"type":"Point","coordinates":[112.022,31.0262]},"properties":{"name":"漳河水库","id":33,"count":11}},{"type":"Feature","geometry":{"type":"Point","coordinates":[112.9153,30.9228]},"properties":{"name":"太子山国家森林公园","id":34,"count":13}},{"type":"Feature","geometry":{"type":"Point","coordinates":[112.032,31.0255]},"properties":{"name":"湖心岛","id":35,"count":5}},{"type":"Feature","geometry":{"type":"Point","coordinates":[113.0991,31.3147]},"properties":{"name":"绿林仙人洞","id":36,"count":4}},{"type":"Feature","geometry":{"type":"Point","coordinates":[112.9061,30.8844]},"properties":{"name":"白鹿春旅游度假区","id":37,"count":5}},{"type":"Feature","geometry":{"type":"Point","coordinates":[112.912,31.0805]},"properties":{"name":"虎爪山国家森林公园","id":38,"count":5}},{"type":"Feature","geometry":{"type":"Point","coordinates":[113.4542,30.9618]},"properties":{"name":"应城楚珍园","id":39,"count":10}},{"type":"Feature","geometry":{"type":"Point","coordinates":[110.4519,31.4627]},"properties":{"name":"天生桥","id":40,"count":209}},{"type":"Feature","geometry":{"type":"Point","coordinates":[110.1435,31.457]},"properties":{"name":"坪阡古镇","id":41,"count":17}},{"type":"Feature","geometry":{"type":"Point","coordinates":[110.4674,31.7077]},"properties":{"name":"天燕旅游区","id":42,"count":129}},{"type":"Feature","geometry":{"type":"Point","coordinates":[114.146,31.3425]},"properties":{"name":"观音湖生态文化旅游度假区","id":43,"count":62}},{"type":"Feature","geometry":{"type":"Point","coordinates":[113.7467,31.2133]},"properties":{"name":"盛世闻樱旅游景区","id":44,"count":3}},{"type":"Feature","geometry":{"type":"Point","coordinates":[114.1092,31.0234]},"properties":{"name":"卓尔小镇桃花驿","id":45,"count":69}},{"type":"Feature","geometry":{"type":"Point","coordinates":[114.1443,31.5689]},"properties":{"name":"鄂豫边区革命烈士陵园","id":46,"count":37}},{"type":"Feature","geometry":{"type":"Point","coordinates":[113.8436,30.5449]},"properties":{"name":"天屿湖温泉","id":47,"count":71}},{"type":"Feature","geometry":{"type":"Point","coordinates":[113.3537,31.4009]},"properties":{"name":"钱冲银杏谷","id":48,"count":196}},{"type":"Feature","geometry":{"type":"Point","coordinates":[113.9242,30.9255]},"properties":{"name":"董永公园","id":49,"count":113}},{"type":"Feature","geometry":{"type":"Point","coordinates":[113.9567,31.014]},"properties":{"name":"金卉庄园","id":50,"count":551}},{"type":"Feature","geometry":{"type":"Point","coordinates":[110.236,31.4631]},"properties":{"name":"板壁岩","id":51,"count":214}},{"type":"Feature","geometry":{"type":"Point","coordinates":[110.3875,31.4427]},"properties":{"name":"官门山","id":52,"count":148}},{"type":"Feature","geometry":{"type":"Point","coordinates":[110.284,31.4478]},"properties":{"name":"神农谷","id":53,"count":106}},{"type":"Feature","geometry":{"type":"Point","coordinates":[110.3887,31.475]},"properties":{"name":"香溪源","id":54,"count":570}},{"type":"Feature","geometry":{"type":"Point","coordinates":[110.3452,31.4343]},"properties":{"name":"神农架风景区","id":55,"count":1018}},{"type":"Feature","geometry":{"type":"Point","coordinates":[114.467,30.9656]},"properties":{"name":"木兰草原","id":56,"count":4814}},{"type":"Feature","geometry":{"type":"Point","coordinates":[110.0174,31.4849]},"properties":{"name":"大九湖国家湿地公园","id":57,"count":676}},{"type":"Feature","geometry":{"type":"Point","coordinates":[114.213,31.1932]},"properties":{"name":"双峰山国家森林公园","id":58,"count":109}},{"type":"Feature","geometry":{"type":"Point","coordinates":[112.0757,30.9885]},"properties":{"name":"飞行家太空体验馆","id":59,"count":8}},{"type":"Feature","geometry":{"type":"Point","coordinates":[113.5721,31.3315]},"properties":{"name":"白兆山李白文化旅游区","id":60,"count":114}},{"type":"Feature","geometry":{"type":"Point","coordinates":[110.5314,31.8265]},"properties":{"name":"巴桃园景区","id":61,"count":37}},{"type":"Feature","geometry":{"type":"Point","coordinates":[113.3497,30.915]},"properties":{"name":"汤池温泉","id":62,"count":1340}},{"type":"Feature","geometry":{"type":"Point","coordinates":[113.9864,31.1111]},"properties":{"name":"天紫湖生态度假区","id":63,"count":1}},{"type":"Feature","geometry":{"type":"Point","coordinates":[112.2107,31.0795]},"properties":{"name":"荆门欢乐世界游乐园","id":64,"count":10}},{"type":"Feature","geometry":{"type":"Point","coordinates":[110.3913,31.5583]},"properties":{"name":"神农架国际滑雪场","id":65,"count":362}},{"type":"Feature","geometry":{"type":"Point","coordinates":[113.1265,31.0203]},"properties":{"name":"文峰公园","id":66,"count":0}},{"type":"Feature","geometry":{"type":"Point","coordinates":[110.4839,31.5376]},"properties":{"name":"老君山","id":67,"count":51}},{"type":"Feature","geometry":{"type":"Point","coordinates":[113.0458,30.9918]},"properties":{"name":"京山茶花源景区","id":68,"count":10}},{"type":"Feature","geometry":{"type":"Point","coordinates":[113.8493,30.5565]},"properties":{"name":"天屿湖","id":69,"count":19}},{"type":"Feature","geometry":{"type":"Point","coordinates":[112.6007,31.1671]},"properties":{"name":"元佑宫","id":70,"count":5}},{"type":"Feature","geometry":{"type":"Point","coordinates":[114.3053,31.3639]},"properties":{"name":"铁寨风景区","id":71,"count":175}},{"type":"Feature","geometry":{"type":"Point","coordinates":[112.8134,31.1075]},"properties":{"name":"大口度假新村","id":72,"count":1}},{"type":"Feature","geometry":{"type":"Point","coordinates":[110.4523,31.4393]},"properties":{"name":"神农祭坛","id":73,"count":164}},{"type":"Feature","geometry":{"type":"Point","coordinates":[113.9525,31.0388]},"properties":{"name":"爱琴海水上乐园","id":74,"count":132}},{"type":"Feature","geometry":{"type":"Point","coordinates":[112.5951,30.7153]},"properties":{"name":"沙洋县","id":75,"count":15}},{"type":"Feature","geometry":{"type":"Point","coordinates":[113.2754,30.9953]},"properties":{"name":"京山花台山景区","id":76,"count":1}},{"type":"Feature","geometry":{"type":"Point","coordinates":[110.4896,31.4074]},"properties":{"name":"木鱼镇","id":77,"count":17}},{"type":"Feature","geometry":{"type":"Point","coordinates":[112.9007,30.8712]},"properties":{"name":"中国农谷院士村","id":78,"count":1}},{"type":"Feature","geometry":{"type":"Point","coordinates":[112.6125,31.1886]},"properties":{"name":"莫愁湖游乐城","id":79,"count":2}},{"type":"Feature","geometry":{"type":"Point","coordinates":[111.9644,31.2417]},"properties":{"name":"青林寨关公园风景区","id":80,"count":7}},{"type":"Feature","geometry":{"type":"Point","coordinates":[112.2088,31.0808]},"properties":{"name":"荆门欢乐世界水乐园","id":81,"count":0}},{"type":"Feature","geometry":{"type":"Point","coordinates":[112.7458,31.1574]},"properties":{"name":"万紫千红植物园","id":82,"count":21}},{"type":"Feature","geometry":{"type":"Point","coordinates":[114.1911,31.7825]},"properties":{"name":"十八潭风景区","id":83,"count":65}},{"type":"Feature","geometry":{"type":"Point","coordinates":[114.4023,30.6012]},"properties":{"name":"武汉玛雅海滩水公园","id":84,"count":1544}},{"type":"Feature","geometry":{"type":"Point","coordinates":[110.2689,31.4693]},"properties":{"name":"神农顶风景区","id":85,"count":1}},{"type":"Feature","geometry":{"type":"Point","coordinates":[114.4008,30.5977]},"properties":{"name":"武汉欢乐谷","id":86,"count":19352}},{"type":"Feature","geometry":{"type":"Point","coordinates":[114.3148,30.5942]},"properties":{"name":"武汉两江游览（夜游长江）","id":87,"count":3202}},{"type":"Feature","geometry":{"type":"Point","coordinates":[110.4739,31.7182]},"properties":{"name":"燕子洞","id":88,"count":19}},{"type":"Feature","geometry":{"type":"Point","coordinates":[110.3157,31.4847]},"properties":{"name":"小龙潭野考站","id":89,"count":24}},{"type":"Feature","geometry":{"type":"Point","coordinates":[110.3135,31.484]},"properties":{"name":"大龙潭金丝猴科研基地","id":90,"count":10}},{"type":"Feature","geometry":{"type":"Point","coordinates":[110.5175,31.3591]},"properties":{"name":"龙门河国家森林公园","id":91,"count":13}},{"type":"Feature","geometry":{"type":"Point","coordinates":[110.4317,31.6764]},"properties":{"name":"古犀牛洞","id":92,"count":13}},{"type":"Feature","geometry":{"type":"Point","coordinates":[110.2038,31.4558]},"properties":{"name":"太子垭","id":93,"count":25}},{"type":"Feature","geometry":{"type":"Point","coordinates":[110.251,31.4521]},"properties":{"name":"凉风垭","id":94,"count":11}},{"type":"Feature","geometry":{"type":"Point","coordinates":[110.4586,31.7018]},"properties":{"name":"天门垭","id":95,"count":17}},{"type":"Feature","geometry":{"type":"Point","coordinates":[110.2805,31.4558]},"properties":{"name":"瞭望塔","id":96,"count":30}},{"type":"Feature","geometry":{"type":"Point","coordinates":[110.4325,31.6914]},"properties":{"name":"野人馆","id":97,"count":2}},{"type":"Feature","geometry":{"type":"Point","coordinates":[110.321,31.4793]},"properties":{"name":"金猴岭","id":98,"count":67}},{"type":"Feature","geometry":{"type":"Point","coordinates":[110.4368,31.6793]},"properties":{"name":"红坪画廊","id":99,"count":68}},{"type":"Feature","geometry":{"type":"Point","coordinates":[110.4723,31.7202]},"properties":{"name":"燕子垭","id":100,"count":41}},{"type":"Feature","geometry":{"type":"Point","coordinates":[114.3862,30.5803]},"properties":{"name":"武汉东湖海洋世界","id":101,"count":4783}},{"type":"Feature","geometry":{"type":"Point","coordinates":[110.0033,31.4983]},"properties":{"name":"鹿苑","id":102,"count":8}},{"type":"Feature","geometry":{"type":"Point","coordinates":[110.4368,31.6793]},"properties":{"name":"画廊谷","id":103,"count":1}},{"type":"Feature","geometry":{"type":"Point","coordinates":[110.5472,31.3513]},"properties":{"name":"潮水河漂流","id":104,"count":5}},{"type":"Feature","geometry":{"type":"Point","coordinates":[110.4639,31.6637]},"properties":{"name":"红坪镇","id":105,"count":1}},{"type":"Feature","geometry":{"type":"Point","coordinates":[110.687,31.7493]},"properties":{"name":"武山湖 ","id":106,"count":1}},{"type":"Feature","geometry":{"type":"Point","coordinates":[110.2575,31.3691]},"properties":{"name":"湖北神农架下谷坪乡猕猴基地","id":107,"count":1}},{"type":"Feature","geometry":{"type":"Point","coordinates":[110.0082,31.5137]},"properties":{"name":"神农架林区神农架大九湖国家湿地公园-观景台","id":108,"count":4}},{"type":"Feature","geometry":{"type":"Point","coordinates":[110.2575,31.3694]},"properties":{"name":"太和山","id":109,"count":1}},{"type":"Feature","geometry":{"type":"Point","coordinates":[110.278,31.4555]},"properties":{"name":"阴峪河大峡谷","id":110,"count":1}},{"type":"Feature","geometry":{"type":"Point","coordinates":[110.3084,31.5119]},"properties":{"name":"大龙潭","id":111,"count":1}},{"type":"Feature","geometry":{"type":"Point","coordinates":[110.4972,31.4819]},"properties":{"name":"城墙岩","id":112,"count":3}},{"type":"Feature","geometry":{"type":"Point","coordinates":[110.3979,31.5084]},"properties":{"name":"神农架彩虹谷度假区","id":113,"count":0}},{"type":"Feature","geometry":{"type":"Point","coordinates":[110.3733,31.4382]},"properties":{"name":"神农架自然展览馆群-民俗馆","id":114,"count":1}},{"type":"Feature","geometry":{"type":"Point","coordinates":[110.4001,31.4506]},"properties":{"name":"植物园","id":115,"count":1}},{"type":"Feature","geometry":{"type":"Point","coordinates":[114.3872,30.5797]},"properties":{"name":"东湖魔兽城堡","id":116,"count":91}},{"type":"Feature","geometry":{"type":"Point","coordinates":[114.298,30.5847]},"properties":{"name":"梵高星空美术馆（江汉路旗舰店）","id":117,"count":411}},{"type":"Feature","geometry":{"type":"Point","coordinates":[113.9523,30.5654]},"properties":{"name":"武汉野生动物王国","id":118,"count":177}},{"type":"Feature","geometry":{"type":"Point","coordinates":[114.3991,30.5745]},"properties":{"name":"东湖沙滩景区","id":119,"count":61}},{"type":"Feature","geometry":{"type":"Point","coordinates":[114.259,30.6204]},"properties":{"name":"梵高星空艺术馆（汉口馆）","id":120,"count":19}},{"type":"Feature","geometry":{"type":"Point","coordinates":[114.203,30.5419]},"properties":{"name":"康之泉","id":121,"count":67}},{"type":"Feature","geometry":{"type":"Point","coordinates":[114.4399,31.0397]},"properties":{"name":" 木兰胜天森林水王国","id":122,"count":1}},{"type":"Feature","geometry":{"type":"Point","coordinates":[114.3089,30.5919]},"properties":{"name":"黎黄陂路","id":123,"count":180}},{"type":"Feature","geometry":{"type":"Point","coordinates":[114.3054,30.5564]},"properties":{"name":"中共五大会址纪念馆","id":124,"count":154}},{"type":"Feature","geometry":{"type":"Point","coordinates":[114.1407,30.4442]},"properties":{"name":"鸟语林","id":125,"count":33}},{"type":"Feature","geometry":{"type":"Point","coordinates":[114.307,30.5593]},"properties":{"name":"武汉革命博物馆","id":126,"count":147}},{"type":"Feature","geometry":{"type":"Point","coordinates":[114.2684,30.5511]},"properties":{"name":"武汉中华奇石馆","id":127,"count":188}},{"type":"Feature","geometry":{"type":"Point","coordinates":[114.2995,30.5897]},"properties":{"name":"武汉美术馆","id":128,"count":83}},{"type":"Feature","geometry":{"type":"Point","coordinates":[114.3943,31.2438]},"properties":{"name":"木兰花乡","id":129,"count":516}},{"type":"Feature","geometry":{"type":"Point","coordinates":[114.2934,30.5815]},"properties":{"name":"武汉国民政府旧址","id":130,"count":117}},{"type":"Feature","geometry":{"type":"Point","coordinates":[114.3817,30.574]},"properties":{"name":"东湖听涛景区","id":131,"count":77}},{"type":"Feature","geometry":{"type":"Point","coordinates":[114.3674,30.5243]},"properties":{"name":"华中师范大学","id":132,"count":182}},{"type":"Feature","geometry":{"type":"Point","coordinates":[114.4135,30.5547]},"properties":{"name":"东湖之眼摩天轮","id":133,"count":1}},{"type":"Feature","geometry":{"type":"Point","coordinates":[114.3435,30.5512]},"properties":{"name":"洪山广场","id":134,"count":204}},{"type":"Feature","geometry":{"type":"Point","coordinates":[113.9397,30.5545]},"properties":{"name":"金龙水寨生态乐园","id":135,"count":301}},{"type":"Feature","geometry":{"type":"Point","coordinates":[114.2659,30.5672]},"properties":{"name":"琴台钢琴博物馆","id":136,"count":44}},{"type":"Feature","geometry":{"type":"Point","coordinates":[114.4033,31.0992]},"properties":{"name":"黄陂木兰文化生态旅游区","id":137,"count":50}},{"type":"Feature","geometry":{"type":"Point","coordinates":[114.295,30.3522]},"properties":{"name":"白云洞","id":138,"count":110}},{"type":"Feature","geometry":{"type":"Point","coordinates":[114.3797,30.5757]},"properties":{"name":"屈原纪念馆","id":139,"count":34}},{"type":"Feature","geometry":{"type":"Point","coordinates":[114.3229,30.6125]},"properties":{"name":"汉口江滩","id":140,"count":738}},{"type":"Feature","geometry":{"type":"Point","coordinates":[114.1399,30.3515]},"properties":{"name":"中山舰博物馆","id":141,"count":100}},{"type":"Feature","geometry":{"type":"Point","coordinates":[114.4132,30.5083]},"properties":{"name":"光谷多莫大教堂","id":142,"count":123}},{"type":"Feature","geometry":{"type":"Point","coordinates":[114.3842,30.5841]},"properties":{"name":"东湖楚风园","id":143,"count":80}},{"type":"Feature","geometry":{"type":"Point","coordinates":[114.274,30.5619]},"properties":{"name":"汉阳造艺术区","id":144,"count":117}},{"type":"Feature","geometry":{"type":"Point","coordinates":[114.2609,30.6253]},"properties":{"name":"汉口火车站","id":145,"count":545}},{"type":"Feature","geometry":{"type":"Point","coordinates":[114.3158,30.6144]},"properties":{"name":"嘟噜嘟噜萌宠科普主题乐园","id":146,"count":122}},{"type":"Feature","geometry":{"type":"Point","coordinates":[114.0932,30.5117]},"properties":{"name":"疯狂的麦咭主题乐园","id":147,"count":5}},{"type":"Feature","geometry":{"type":"Point","coordinates":[114.4086,30.5111]},"properties":{"name":"世界城-光谷步行街","id":148,"count":691}},{"type":"Feature","geometry":{"type":"Point","coordinates":[114.092,30.7095]},"properties":{"name":"东西湖郁金香主题公园","id":149,"count":370}},{"type":"Feature","geometry":{"type":"Point","coordinates":[114.2331,31.2789]},"properties":{"name":"锦里沟","id":150,"count":1380}},{"type":"Feature","geometry":{"type":"Point","coordinates":[114.3719,30.5703]},"properties":{"name":"湖北美术馆","id":151,"count":166}},{"type":"Feature","geometry":{"type":"Point","coordinates":[114.4147,30.6439]},"properties":{"name":"青山公园","id":152,"count":167}},{"type":"Feature","geometry":{"type":"Point","coordinates":[114.1959,30.5397]},"properties":{"name":"梵高星空艺术馆","id":153,"count":605}},{"type":"Feature","geometry":{"type":"Point","coordinates":[114.3178,30.6022]},"properties":{"name":"知音号","id":154,"count":782}},{"type":"Feature","geometry":{"type":"Point","coordinates":[114.3005,30.552]},"properties":{"name":"武汉长江大桥建成纪念碑","id":155,"count":78}},{"type":"Feature","geometry":{"type":"Point","coordinates":[114.3448,30.5701]},"properties":{"name":"沙湖公园","id":156,"count":114}},{"type":"Feature","geometry":{"type":"Point","coordinates":[114.3473,30.537]},"properties":{"name":"宝通禅寺","id":157,"count":233}},{"type":"Feature","geometry":{"type":"Point","coordinates":[114.6189,30.8208]},"properties":{"name":"紫薇都市田园","id":158,"count":879}},{"type":"Feature","geometry":{"type":"Point","coordinates":[114.2961,30.5878]},"properties":{"name":"5D星空错觉艺术馆","id":159,"count":10}},{"type":"Feature","geometry":{"type":"Point","coordinates":[114.3764,30.5411]},"properties":{"name":"珞珈山","id":160,"count":92}},{"type":"Feature","geometry":{"type":"Point","coordinates":[114.336,30.5622]},"properties":{"name":"湖北省图书馆","id":161,"count":104}},{"type":"Feature","geometry":{"type":"Point","coordinates":[114.1785,30.507]},"properties":{"name":"武汉体育中心","id":162,"count":106}},{"type":"Feature","geometry":{"type":"Point","coordinates":[114.3058,30.5567]},"properties":{"name":"毛泽东同志旧居","id":163,"count":161}},{"type":"Feature","geometry":{"type":"Point","coordinates":[114.329,30.7531]},"properties":{"name":"桃源集亲子小镇","id":164,"count":43}},{"type":"Feature","geometry":{"type":"Point","coordinates":[114.3219,30.6204]},"properties":{"name":"武汉天地","id":165,"count":274}},{"type":"Feature","geometry":{"type":"Point","coordinates":[114.2171,30.5667]},"properties":{"name":"冰雪奇园","id":166,"count":87}},{"type":"Feature","geometry":{"type":"Point","coordinates":[114.2484,30.5132]},"properties":{"name":"武汉国际博览中心","id":167,"count":69}},{"type":"Feature","geometry":{"type":"Point","coordinates":[114.2869,30.5531]},"properties":{"name":"汉阳江滩","id":168,"count":39}},{"type":"Feature","geometry":{"type":"Point","coordinates":[114.346,30.5637]},"properties":{"name":"楚河汉街","id":169,"count":489}},{"type":"Feature","geometry":{"type":"Point","coordinates":[114.3071,30.5859]},"properties":{"name":"武汉港","id":170,"count":21}},{"type":"Feature","geometry":{"type":"Point","coordinates":[114.4031,30.5996]},"properties":{"name":"麦鲁小城","id":171,"count":332}},{"type":"Feature","geometry":{"type":"Point","coordinates":[114.2234,31.1224]},"properties":{"name":"木兰云雾山","id":172,"count":854}},{"type":"Feature","geometry":{"type":"Point","coordinates":[114.0646,30.4494]},"properties":{"name":"动力风暴汽车梦幻乐园","id":173,"count":42}},{"type":"Feature","geometry":{"type":"Point","coordinates":[114.3999,30.4924]},"properties":{"name":"中南民族大学","id":174,"count":120}},{"type":"Feature","geometry":{"type":"Point","coordinates":[114.4198,30.5188]},"properties":{"name":"华中科技大学","id":175,"count":204}},{"type":"Feature","geometry":{"type":"Point","coordinates":[114.2494,30.5663]},"properties":{"name":"张之洞与武汉博物馆","id":176,"count":67}},{"type":"Feature","geometry":{"type":"Point","coordinates":[114.2976,30.5908]},"properties":{"name":"吉庆街","id":177,"count":315}},{"type":"Feature","geometry":{"type":"Point","coordinates":[114.295,30.589]},"properties":{"name":"江汉路步行街","id":178,"count":981}},{"type":"Feature","geometry":{"type":"Point","coordinates":[114.3844,30.5802]},"properties":{"name":"东湖海洋乐园飞鸟世界","id":179,"count":159}},{"type":"Feature","geometry":{"type":"Point","coordinates":[114.2745,30.5607]},"properties":{"name":"龟山公园","id":180,"count":118}},{"type":"Feature","geometry":{"type":"Point","coordinates":[114.3431,30.5652]},"properties":{"name":"万达儿童乐园","id":181,"count":115}},{"type":"Feature","geometry":{"type":"Point","coordinates":[114.3579,30.5262]},"properties":{"name":"武汉理工大学（马房山校区）","id":182,"count":95}},{"type":"Feature","geometry":{"type":"Point","coordinates":[114.2292,30.6305]},"properties":{"name":"武汉自然博物馆·贝林大河生命馆","id":183,"count":540}},{"type":"Feature","geometry":{"type":"Point","coordinates":[114.3065,30.5849]},"properties":{"name":"武汉科技馆","id":184,"count":189}},{"type":"Feature","geometry":{"type":"Point","coordinates":[114.4197,30.5544]},"properties":{"name":"东湖磨山景区","id":185,"count":1227}},{"type":"Feature","geometry":{"type":"Point","coordinates":[114.3121,30.5431]},"properties":{"name":"首义广场","id":186,"count":255}},{"type":"Feature","geometry":{"type":"Point","coordinates":[114.3051,30.6136]},"properties":{"name":"解放公园","id":187,"count":299}},{"type":"Feature","geometry":{"type":"Point","coordinates":[114.3163,30.5485]},"properties":{"name":"蛇山","id":188,"count":116}},{"type":"Feature","geometry":{"type":"Point","coordinates":[114.2831,30.6051]},"properties":{"name":"武汉杂技厅","id":189,"count":134}},{"type":"Feature","geometry":{"type":"Point","coordinates":[114.3065,30.5923]},"properties":{"name":"八七会议会址","id":190,"count":85}},{"type":"Feature","geometry":{"type":"Point","coordinates":[114.4133,30.5467]},"properties":{"name":"东湖梅园","id":191,"count":393}},{"type":"Feature","geometry":{"type":"Point","coordinates":[114.2656,30.5515]},"properties":{"name":"归元禅寺","id":192,"count":685}},{"type":"Feature","geometry":{"type":"Point","coordinates":[114.3045,30.5598]},"properties":{"name":"武昌红巷码头","id":193,"count":99}},{"type":"Feature","geometry":{"type":"Point","coordinates":[114.3718,30.5678]},"properties":{"name":"湖北省博物馆","id":194,"count":1839}},{"type":"Feature","geometry":{"type":"Point","coordinates":[114.1917,30.6452]},"properties":{"name":"金银湖湿地公园","id":195,"count":134}},{"type":"Feature","geometry":{"type":"Point","coordinates":[114.4135,30.5547]},"properties":{"name":"东湖磨山欢乐丛林游乐园","id":196,"count":25}},{"type":"Feature","geometry":{"type":"Point","coordinates":[114.1762,30.6268]},"properties":{"name":"宜家冰雪王国","id":197,"count":359}},{"type":"Feature","geometry":{"type":"Point","coordinates":[114.3127,30.5431]},"properties":{"name":"辛亥革命博物馆","id":198,"count":276}},{"type":"Feature","geometry":{"type":"Point","coordinates":[114.2223,30.6322]},"properties":{"name":"武汉园博园","id":199,"count":4687}},{"type":"Feature","geometry":{"type":"Point","coordinates":[114.3832,30.5705]},"properties":{"name":"东湖游船行吟阁码头","id":200,"count":40}},{"type":"Feature","geometry":{"type":"Point","coordinates":[114.4137,30.5083]},"properties":{"name":"意大利风情街","id":201,"count":105}},{"type":"Feature","geometry":{"type":"Point","coordinates":[114.3785,31.0327]},"properties":{"name":"大余湾","id":202,"count":1}},{"type":"Feature","geometry":{"type":"Point","coordinates":[114.1723,30.4731]},"properties":{"name":"汤湖公园","id":203,"count":116}},{"type":"Feature","geometry":{"type":"Point","coordinates":[114.2884,30.5979]},"properties":{"name":"武汉青少年宫水上世界","id":204,"count":59}},{"type":"Feature","geometry":{"type":"Point","coordinates":[114.4691,31.0249]},"properties":{"name":" 野村谷亲子公园","id":205,"count":1}},{"type":"Feature","geometry":{"type":"Point","coordinates":[114.3873,30.5808]},"properties":{"name":"东湖海洋乐园欢乐水世界","id":206,"count":112}},{"type":"Feature","geometry":{"type":"Point","coordinates":[114.2314,30.6261]},"properties":{"name":"汉口里","id":207,"count":155}},{"type":"Feature","geometry":{"type":"Point","coordinates":[114.0836,30.4936]},"properties":{"name":"花博汇","id":208,"count":3343}},{"type":"Feature","geometry":{"type":"Point","coordinates":[114.2483,30.5186]},"properties":{"name":"袋鼠玩趣城","id":209,"count":0}},{"type":"Feature","geometry":{"type":"Point","coordinates":[114.4467,31.0282]},"properties":{"name":"木兰玫瑰园","id":210,"count":152}},{"type":"Feature","geometry":{"type":"Point","coordinates":[114.2497,30.5491]},"properties":{"name":"武汉动物园","id":211,"count":1063}},{"type":"Feature","geometry":{"type":"Point","coordinates":[114.2659,30.5672]},"properties":{"name":"琴台大剧院","id":212,"count":40}},{"type":"Feature","geometry":{"type":"Point","coordinates":[114.3087,30.5646]},"properties":{"name":"武昌江滩","id":213,"count":134}},{"type":"Feature","geometry":{"type":"Point","coordinates":[114.4352,30.9654]},"properties":{"name":"木兰水镇","id":214,"count":262}},{"type":"Feature","geometry":{"type":"Point","coordinates":[114.5027,30.5104]},"properties":{"name":"九峰森林动物园","id":215,"count":793}},{"type":"Feature","geometry":{"type":"Point","coordinates":[113.9611,30.4794]},"properties":{"name":"九真山风景区","id":216,"count":220}},{"type":"Feature","geometry":{"type":"Point","coordinates":[114.42,30.5579]},"properties":{"name":"东湖","id":217,"count":3542}},{"type":"Feature","geometry":{"type":"Point","coordinates":[114.5117,30.5952]},"properties":{"name":"张公山寨","id":218,"count":577}},{"type":"Feature","geometry":{"type":"Point","coordinates":[114.351,30.5613]},"properties":{"name":"武汉杜莎夫人蜡像馆","id":219,"count":2567}},{"type":"Feature","geometry":{"type":"Point","coordinates":[114.4653,30.2483]},"properties":{"name":"梁子湖龙湾度假村","id":220,"count":107}},{"type":"Feature","geometry":{"type":"Point","coordinates":[114.3273,30.5461]},"properties":{"name":"长春观","id":221,"count":159}},{"type":"Feature","geometry":{"type":"Point","coordinates":[114.2003,31.2576]},"properties":{"name":"姚家山风景区","id":222,"count":219}},{"type":"Feature","geometry":{"type":"Point","coordinates":[114.3229,30.6126]},"properties":{"name":"汉口江滩公园","id":223,"count":269}},{"type":"Feature","geometry":{"type":"Point","coordinates":[114.2603,30.5727]},"properties":{"name":"汉正街","id":224,"count":217}},{"type":"Feature","geometry":{"type":"Point","coordinates":[114.3041,30.5818]},"properties":{"name":"江汉关博物馆","id":225,"count":217}},{"type":"Feature","geometry":{"type":"Point","coordinates":[114.7608,30.9167]},"properties":{"name":"凤娃古寨旅游风景区","id":226,"count":418}},{"type":"Feature","geometry":{"type":"Point","coordinates":[114.2703,30.5605]},"properties":{"name":"古琴台","id":227,"count":293}},{"type":"Feature","geometry":{"type":"Point","coordinates":[114.2631,30.6177]},"properties":{"name":"武汉博物馆","id":228,"count":363}},{"type":"Feature","geometry":{"type":"Point","coordinates":[114.3129,30.5479]},"properties":{"name":"辛亥革命武昌起义纪念馆","id":229,"count":1}},{"type":"Feature","geometry":{"type":"Point","coordinates":[114.407,30.5237]},"properties":{"name":"中国地质大学逸夫博物馆","id":230,"count":736}},{"type":"Feature","geometry":{"type":"Point","coordinates":[114.4443,30.5678]},"properties":{"name":"东湖落雁景区","id":231,"count":1109}},{"type":"Feature","geometry":{"type":"Point","coordinates":[114.4555,30.5254]},"properties":{"name":"马鞍山森林公园","id":232,"count":130}},{"type":"Feature","geometry":{"type":"Point","coordinates":[114.4197,30.4823]},"properties":{"name":"光谷天地","id":233,"count":222}},{"type":"Feature","geometry":{"type":"Point","coordinates":[114.3995,31.1084]},"properties":{"name":"木兰山","id":234,"count":735}},{"type":"Feature","geometry":{"type":"Point","coordinates":[114.4173,30.5513]},"properties":{"name":"东湖樱花园","id":235,"count":1821}},{"type":"Feature","geometry":{"type":"Point","coordinates":[114.3047,30.5529]},"properties":{"name":"户部巷","id":236,"count":6497}},{"type":"Feature","geometry":{"type":"Point","coordinates":[114.2915,31.1837]},"properties":{"name":"木兰天池","id":237,"count":1}},{"type":"Feature","geometry":{"type":"Point","coordinates":[114.2781,30.5926]},"properties":{"name":"中山公园","id":238,"count":492}},{"type":"Feature","geometry":{"type":"Point","coordinates":[114.3543,30.5581]},"properties":{"name":"汉秀剧场","id":239,"count":1807}},{"type":"Feature","geometry":{"type":"Point","coordinates":[114.2913,30.5613]},"properties":{"name":"晴川阁","id":240,"count":751}},{"type":"Feature","geometry":{"type":"Point","coordinates":[114.4389,31.0402]},"properties":{"name":"木兰胜天（农庄）景区","id":241,"count":546}},{"type":"Feature","geometry":{"type":"Point","coordinates":[114.3156,30.5575]},"properties":{"name":"昙华林","id":242,"count":876}},{"type":"Feature","geometry":{"type":"Point","coordinates":[114.4299,30.5506]},"properties":{"name":"武汉植物园","id":243,"count":3749}},{"type":"Feature","geometry":{"type":"Point","coordinates":[114.3141,30.6242]},"properties":{"name":"古德寺","id":244,"count":488}},{"type":"Feature","geometry":{"type":"Point","coordinates":[114.3721,30.5442]},"properties":{"name":"武汉大学","id":245,"count":3635}},{"type":"Feature","geometry":{"type":"Point","coordinates":[114.295,30.5554]},"properties":{"name":"武汉长江大桥","id":246,"count":3361}},{"type":"Feature","geometry":{"type":"Point","coordinates":[114.3174,30.5531]},"properties":{"name":"粮道街","id":247,"count":28}},{"type":"Feature","geometry":{"type":"Point","coordinates":[114.3138,30.5315]},"properties":{"name":"起义门","id":248,"count":118}},{"type":"Feature","geometry":{"type":"Point","coordinates":[114.2212,30.5548]},"properties":{"name":"墨水湖","id":249,"count":118}},{"type":"Feature","geometry":{"type":"Point","coordinates":[114.2856,30.6698]},"properties":{"name":"海洋剧场","id":250,"count":5}},{"type":"Feature","geometry":{"type":"Point","coordinates":[114.3693,30.5416]},"properties":{"name":"武汉大学-图书馆","id":251,"count":88}},{"type":"Feature","geometry":{"type":"Point","coordinates":[114.2728,30.5569]},"properties":{"name":"小伢当家儿童社会体验馆","id":252,"count":103}},{"type":"Feature","geometry":{"type":"Point","coordinates":[114.3968,30.6408]},"properties":{"name":"和平游乐园","id":253,"count":114}},{"type":"Feature","geometry":{"type":"Point","coordinates":[114.4394,30.4666]},"properties":{"name":"武汉工程大学流芳校区","id":254,"count":73}},{"type":"Feature","geometry":{"type":"Point","coordinates":[114.3118,30.5361]},"properties":{"name":"紫阳公园","id":255,"count":117}},{"type":"Feature","geometry":{"type":"Point","coordinates":[114.3137,30.3775]},"properties":{"name":"扬子江非遗文化馆","id":256,"count":86}},{"type":"Feature","geometry":{"type":"Point","coordinates":[114.0355,30.6018]},"properties":{"name":"武汉花世界","id":257,"count":107}},{"type":"Feature","geometry":{"type":"Point","coordinates":[114.2907,30.5603]},"properties":{"name":"大禹神话园","id":258,"count":74}},{"type":"Feature","geometry":{"type":"Point","coordinates":[114.2283,30.6294]},"properties":{"name":"长江文明馆","id":259,"count":8}},{"type":"Feature","geometry":{"type":"Point","coordinates":[114.3407,30.5829]},"properties":{"name":"湖北大学","id":260,"count":127}},{"type":"Feature","geometry":{"type":"Point","coordinates":[114.3111,30.5464]},"properties":{"name":"湖北剧院","id":261,"count":61}},{"type":"Feature","geometry":{"type":"Point","coordinates":[114.3059,30.5909]},"properties":{"name":"詹天佑故居","id":262,"count":93}},{"type":"Feature","geometry":{"type":"Point","coordinates":[113.8998,30.5152]},"properties":{"name":"香草花田","id":263,"count":23}},{"type":"Feature","geometry":{"type":"Point","coordinates":[114.3631,30.4812]},"properties":{"name":"华中农业大学","id":264,"count":16}},{"type":"Feature","geometry":{"type":"Point","coordinates":[114.307,30.5594]},"properties":{"name":"农讲所旧址纪念馆","id":265,"count":78}},{"type":"Feature","geometry":{"type":"Point","coordinates":[114.4184,30.5599]},"properties":{"name":"东湖楚城","id":266,"count":50}},{"type":"Feature","geometry":{"type":"Point","coordinates":[114.3802,30.5471]},"properties":{"name":"东湖南路凌波门","id":267,"count":54}},{"type":"Feature","geometry":{"type":"Point","coordinates":[114.5025,30.5101]},"properties":{"name":"九峰国家森林公园","id":268,"count":51}},{"type":"Feature","geometry":{"type":"Point","coordinates":[114.3746,30.6]},"properties":{"name":"维佳童话镇","id":269,"count":16}},{"type":"Feature","geometry":{"type":"Point","coordinates":[114.3043,30.5488]},"properties":{"name":"大成路夜市","id":270,"count":65}},{"type":"Feature","geometry":{"type":"Point","coordinates":[114.3608,30.5337]},"properties":{"name":"武汉阿拉丁神灯星空科技馆（新世界旗舰馆）","id":271,"count":3}},{"type":"Feature","geometry":{"type":"Point","coordinates":[114.2967,30.589]},"properties":{"name":"保成路夜市","id":272,"count":98}},{"type":"Feature","geometry":{"type":"Point","coordinates":[114.4056,30.4999]},"properties":{"name":"关山荷兰风情园","id":273,"count":91}},{"type":"Feature","geometry":{"type":"Point","coordinates":[114.333,30.526]},"properties":{"name":"莲溪寺","id":274,"count":84}},{"type":"Feature","geometry":{"type":"Point","coordinates":[114.2908,30.6036]},"properties":{"name":"宝岛公园","id":275,"count":117}},{"type":"Feature","geometry":{"type":"Point","coordinates":[114.4087,30.5257]},"properties":{"name":"中国地质大学","id":276,"count":55}},{"type":"Feature","geometry":{"type":"Point","coordinates":[114.2981,30.5423]},"properties":{"name":"武汉音乐学院","id":277,"count":55}},{"type":"Feature","geometry":{"type":"Point","coordinates":[114.3017,30.5826]},"properties":{"name":"武汉失恋博物馆（江汉路店）","id":278,"count":29}},{"type":"Feature","geometry":{"type":"Point","coordinates":[114.2646,30.5836]},"properties":{"name":"冠军游泳馆","id":279,"count":38}},{"type":"Feature","geometry":{"type":"Point","coordinates":[114.3307,30.6407]},"properties":{"name":"二七烈士纪念碑","id":280,"count":83}},{"type":"Feature","geometry":{"type":"Point","coordinates":[114.3472,30.538]},"properties":{"name":"洪山公园-宝通寺","id":281,"count":27}},{"type":"Feature","geometry":{"type":"Point","coordinates":[114.3711,30.5679]},"properties":{"name":"编钟演奏厅","id":282,"count":7}},{"type":"Feature","geometry":{"type":"Point","coordinates":[114.4072,30.5235]},"properties":{"name":"恐龙化石博物馆","id":283,"count":19}},{"type":"Feature","geometry":{"type":"Point","coordinates":[114.4296,30.5661]},"properties":{"name":"落雁岛","id":284,"count":40}},{"type":"Feature","geometry":{"type":"Point","coordinates":[114.2984,30.5828]},"properties":{"name":"花楼街","id":285,"count":58}},{"type":"Feature","geometry":{"type":"Point","coordinates":[114.3086,30.5504]},"properties":{"name":"黄鹤归来铜雕","id":286,"count":58}},{"type":"Feature","geometry":{"type":"Point","coordinates":[114.3023,30.5973]},"properties":{"name":"刘少奇故居","id":287,"count":45}},{"type":"Feature","geometry":{"type":"Point","coordinates":[114.285,30.6685]},"properties":{"name":"海底两万里","id":288,"count":1}},{"type":"Feature","geometry":{"type":"Point","coordinates":[114.3102,30.5497]},"properties":{"name":"搁笔亭","id":289,"count":103}},{"type":"Feature","geometry":{"type":"Point","coordinates":[114.075,30.5511]},"properties":{"name":"后官湖湿地公园","id":290,"count":42}},{"type":"Feature","geometry":{"type":"Point","coordinates":[114.3793,30.5791]},"properties":{"name":"东湖牡丹园","id":291,"count":137}},{"type":"Feature","geometry":{"type":"Point","coordinates":[114.3803,30.5678]},"properties":{"name":"东湖小梅岭","id":292,"count":45}},{"type":"Feature","geometry":{"type":"Point","coordinates":[114.3517,30.5411]},"properties":{"name":"洪山公园","id":293,"count":77}},{"type":"Feature","geometry":{"type":"Point","coordinates":[114.4023,30.6006]},"properties":{"name":"饼干运动家乐园","id":294,"count":64}},{"type":"Feature","geometry":{"type":"Point","coordinates":[114.3831,30.5712]},"properties":{"name":"行吟阁","id":295,"count":49}},{"type":"Feature","geometry":{"type":"Point","coordinates":[114.3243,30.6138]},"properties":{"name":"汉口江滩边芦苇丛","id":296,"count":96}},{"type":"Feature","geometry":{"type":"Point","coordinates":[114.4159,30.5068]},"properties":{"name":"不可思议星空解压馆","id":297,"count":3}},{"type":"Feature","geometry":{"type":"Point","coordinates":[114.2178,30.6035]},"properties":{"name":"江城壹号文化创意园","id":298,"count":53}},{"type":"Feature","geometry":{"type":"Point","coordinates":[114.3169,30.5307]},"properties":{"name":"楚望台","id":299,"count":78}},{"type":"Feature","geometry":{"type":"Point","coordinates":[114.4029,30.6]},"properties":{"name":"玩购主题乐园","id":300,"count":45}},{"type":"Feature","geometry":{"type":"Point","coordinates":[114.3581,31.2889]},"properties":{"name":"木兰古门","id":301,"count":64}},{"type":"Feature","geometry":{"type":"Point","coordinates":[114.3552,30.5674]},"properties":{"name":"武汉琴岛之夜","id":302,"count":51}},{"type":"Feature","geometry":{"type":"Point","coordinates":[114.3428,30.5297]},"properties":{"name":"403国际艺术中心","id":303,"count":74}},{"type":"Feature","geometry":{"type":"Point","coordinates":[114.2758,30.5567]},"properties":{"name":"汉阳公园","id":304,"count":53}},{"type":"Feature","geometry":{"type":"Point","coordinates":[114.2561,30.5723]},"properties":{"name":"月湖桥","id":305,"count":87}},{"type":"Feature","geometry":{"type":"Point","coordinates":[114.3148,30.5567]},"properties":{"name":"花园山天主堂","id":306,"count":58}},{"type":"Feature","geometry":{"type":"Point","coordinates":[114.3202,30.5477]},"properties":{"name":"首义公园","id":307,"count":54}},{"type":"Feature","geometry":{"type":"Point","coordinates":[114.3052,30.6015]},"properties":{"name":"一元路","id":308,"count":56}},{"type":"Feature","geometry":{"type":"Point","coordinates":[114.2886,30.5374]},"properties":{"name":"鹦鹉洲长江大桥","id":309,"count":65}},{"type":"Feature","geometry":{"type":"Point","coordinates":[115.0098,30.8792]},"properties":{"name":"道观河风景区","id":310,"count":48}},{"type":"Feature","geometry":{"type":"Point","coordinates":[114.478,31.1026]},"properties":{"name":"木兰湖","id":311,"count":36}},{"type":"Feature","geometry":{"type":"Point","coordinates":[112.2766,30.3619]},"properties":{"name":"荆州海洋世界水上乐园","id":312,"count":176}},{"type":"Feature","geometry":{"type":"Point","coordinates":[114.3942,30.4108]},"properties":{"name":"汤逊湖","id":313,"count":49}},{"type":"Feature","geometry":{"type":"Point","coordinates":[114.2906,30.6466]},"properties":{"name":"乐泽国际恒温游泳馆","id":314,"count":26}},{"type":"Feature","geometry":{"type":"Point","coordinates":[114.3328,30.3364]},"properties":{"name":"青龙山森林公园","id":315,"count":50}},{"type":"Feature","geometry":{"type":"Point","coordinates":[114.3758,30.5186]},"properties":{"name":"虎泉夜市美食广场","id":316,"count":91}},{"type":"Feature","geometry":{"type":"Point","coordinates":[114.3839,30.5841]},"properties":{"name":"东湖猴岛","id":317,"count":78}},{"type":"Feature","geometry":{"type":"Point","coordinates":[114.3936,30.4837]},"properties":{"name":"GT卡丁车俱乐部","id":318,"count":2}},{"type":"Feature","geometry":{"type":"Point","coordinates":[114.3096,30.5502]},"properties":{"name":"留云亭","id":319,"count":81}},{"type":"Feature","geometry":{"type":"Point","coordinates":[114.5228,30.4176]},"properties":{"name":"龙泉山风景区","id":320,"count":54}},{"type":"Feature","geometry":{"type":"Point","coordinates":[114.4228,31.0144]},"properties":{"name":"木兰三台山风景区","id":321,"count":41}},{"type":"Feature","geometry":{"type":"Point","coordinates":[114.3171,30.6035]},"properties":{"name":"百年银杏大道","id":322,"count":36}},{"type":"Feature","geometry":{"type":"Point","coordinates":[114.3098,30.5514]},"properties":{"name":"基督教武昌堂","id":323,"count":54}},{"type":"Feature","geometry":{"type":"Point","coordinates":[114.3042,30.5599]},"properties":{"name":"红巷旅游码头","id":324,"count":30}},{"type":"Feature","geometry":{"type":"Point","coordinates":[114.3066,30.592]},"properties":{"name":"巴公房子","id":325,"count":21}},{"type":"Feature","geometry":{"type":"Point","coordinates":[114.3919,30.591]},"properties":{"name":"华侨城生态艺术公园","id":326,"count":47}},{"type":"Feature","geometry":{"type":"Point","coordinates":[114.3218,30.5543]},"properties":{"name":"朴园","id":327,"count":26}},{"type":"Feature","geometry":{"type":"Point","coordinates":[114.3058,30.5594]},"properties":{"name":"武汉达临性学博物馆","id":328,"count":38}},{"type":"Feature","geometry":{"type":"Point","coordinates":[114.2943,30.5681]},"properties":{"name":"南岸嘴","id":329,"count":25}},{"type":"Feature","geometry":{"type":"Point","coordinates":[114.3939,30.6421]},"properties":{"name":"和平公园魔方乐园","id":330,"count":6}},{"type":"Feature","geometry":{"type":"Point","coordinates":[114.3476,30.5373]},"properties":{"name":"洪山宝塔","id":331,"count":61}},{"type":"Feature","geometry":{"type":"Point","coordinates":[114.2546,30.6089]},"properties":{"name":"王家墩公园","id":332,"count":39}},{"type":"Feature","geometry":{"type":"Point","coordinates":[114.2775,30.5903]},"properties":{"name":"汉口近代建筑群","id":333,"count":48}},{"type":"Feature","geometry":{"type":"Point","coordinates":[112.2784,30.3605]},"properties":{"name":"荆州小梅沙海洋馆","id":334,"count":288}},{"type":"Feature","geometry":{"type":"Point","coordinates":[114.3641,30.5355]},"properties":{"name":"武汉大学图书馆信息科学分馆","id":335,"count":31}},{"type":"Feature","geometry":{"type":"Point","coordinates":[113.2201,29.9315]},"properties":{"name":"洪湖生态旅游风景区","id":336,"count":237}},{"type":"Feature","geometry":{"type":"Point","coordinates":[114.2778,30.6142]},"properties":{"name":"菱角湖公园","id":337,"count":85}},{"type":"Feature","geometry":{"type":"Point","coordinates":[114.2618,30.6185]},"properties":{"name":"海马公园","id":338,"count":31}},{"type":"Feature","geometry":{"type":"Point","coordinates":[114.3126,30.5451]},"properties":{"name":"阅马场","id":339,"count":51}},{"type":"Feature","geometry":{"type":"Point","coordinates":[114.3235,30.5565]},"properties":{"name":"螃蟹甲","id":340,"count":40}},{"type":"Feature","geometry":{"type":"Point","coordinates":[114.3791,30.5409]},"properties":{"name":"十八栋","id":341,"count":21}},{"type":"Feature","geometry":{"type":"Point","coordinates":[114.0864,30.7091]},"properties":{"name":"醉美西湖观光游乐园","id":342,"count":19}},{"type":"Feature","geometry":{"type":"Point","coordinates":[114.3141,30.5964]},"properties":{"name":"横渡长江博物馆","id":343,"count":21}},{"type":"Feature","geometry":{"type":"Point","coordinates":[114.29,30.5621]},"properties":{"name":"武汉电视塔","id":344,"count":23}},{"type":"Feature","geometry":{"type":"Point","coordinates":[114.4122,30.6357]},"properties":{"name":"中国武钢博物馆","id":345,"count":52}},{"type":"Feature","geometry":{"type":"Point","coordinates":[114.3031,30.5844]},"properties":{"name":"洞庭街","id":346,"count":34}},{"type":"Feature","geometry":{"type":"Point","coordinates":[114.3174,30.5531]},"properties":{"name":"粮道街","id":347,"count":28}},{"type":"Feature","geometry":{"type":"Point","coordinates":[114.3888,30.586]},"properties":{"name":"九女墩","id":348,"count":38}},{"type":"Feature","geometry":{"type":"Point","coordinates":[114.4142,30.5536]},"properties":{"name":"东湖荷园","id":349,"count":22}},{"type":"Feature","geometry":{"type":"Point","coordinates":[113.6019,29.9157]},"properties":{"name":"悦兮半岛水上乐园","id":350,"count":131}},{"type":"Feature","geometry":{"type":"Point","coordinates":[114.2537,30.6291]},"properties":{"name":"金色雅园游泳馆","id":351,"count":20}},{"type":"Feature","geometry":{"type":"Point","coordinates":[114.2844,30.6703]},"properties":{"name":"海洋萌宠乐园","id":352,"count":1}},{"type":"Feature","geometry":{"type":"Point","coordinates":[112.2688,30.3143]},"properties":{"name":"章华寺","id":353,"count":81}},{"type":"Feature","geometry":{"type":"Point","coordinates":[114.3045,30.5897]},"properties":{"name":"汉口东正教堂","id":354,"count":28}},{"type":"Feature","geometry":{"type":"Point","coordinates":[114.3217,30.3576]},"properties":{"name":"江夏体育馆","id":355,"count":36}},{"type":"Feature","geometry":{"type":"Point","coordinates":[114.2703,30.5606]},"properties":{"name":"琴台公园","id":356,"count":41}},{"type":"Feature","geometry":{"type":"Point","coordinates":[114.4257,30.527]},"properties":{"name":"喻家山","id":357,"count":41}},{"type":"Feature","geometry":{"type":"Point","coordinates":[114.2696,30.6067]},"properties":{"name":"北湖公园","id":358,"count":46}},{"type":"Feature","geometry":{"type":"Point","coordinates":[112.0217,30.6162]},"properties":{"name":"楚王车马阵景区（熊家冢国家考古遗址公园）","id":359,"count":556}},{"type":"Feature","geometry":{"type":"Point","coordinates":[114.3624,30.5511]},"properties":{"name":"中科院水生生物博物馆","id":360,"count":20}},{"type":"Feature","geometry":{"type":"Point","coordinates":[112.2043,30.3557]},"properties":{"name":"关帝庙","id":361,"count":391}},{"type":"Feature","geometry":{"type":"Point","coordinates":[114.4472,30.552]},"properties":{"name":"万国公园","id":362,"count":18}},{"type":"Feature","geometry":{"type":"Point","coordinates":[112.2155,30.1482]},"properties":{"name":"荆州星岛生态观光农业园","id":363,"count":4}},{"type":"Feature","geometry":{"type":"Point","coordinates":[112.2368,30.3208]},"properties":{"name":"万寿宝塔","id":364,"count":68}},{"type":"Feature","geometry":{"type":"Point","coordinates":[114.1915,30.5898]},"properties":{"name":"古田桥","id":365,"count":16}},{"type":"Feature","geometry":{"type":"Point","coordinates":[112.1887,30.3629]},"properties":{"name":"三国公园","id":366,"count":59}},{"type":"Feature","geometry":{"type":"Point","coordinates":[111.747,30.168]},"properties":{"name":"九号宇宙航天探索中心","id":367,"count":42}},{"type":"Feature","geometry":{"type":"Point","coordinates":[114.3991,30.632]},"properties":{"name":"南干渠游园","id":368,"count":38}},{"type":"Feature","geometry":{"type":"Point","coordinates":[111.5228,29.9925]},"properties":{"name":"松滋颜将军洞","id":369,"count":44}},{"type":"Feature","geometry":{"type":"Point","coordinates":[114.2914,30.5613]},"properties":{"name":"禹稷行宫","id":370,"count":40}},{"type":"Feature","geometry":{"type":"Point","coordinates":[114.3793,30.5791]},"properties":{"name":"萤火虫主题公园","id":371,"count":12}},{"type":"Feature","geometry":{"type":"Point","coordinates":[114.2607,30.7376]},"properties":{"name":"星期六儿童成长乐园","id":372,"count":22}},{"type":"Feature","geometry":{"type":"Point","coordinates":[114.3449,30.6677]},"properties":{"name":"堤角公园","id":373,"count":30}},{"type":"Feature","geometry":{"type":"Point","coordinates":[111.469,29.9794]},"properties":{"name":"滨湖公园","id":374,"count":87}},{"type":"Feature","geometry":{"type":"Point","coordinates":[114.4229,30.5568]},"properties":{"name":"楚天台","id":375,"count":19}},{"type":"Feature","geometry":{"type":"Point","coordinates":[114.2912,30.5811]},"properties":{"name":"长江书店旧址","id":376,"count":41}},{"type":"Feature","geometry":{"type":"Point","coordinates":[114.2792,30.6014]},"properties":{"name":"喷泉公园","id":377,"count":35}},{"type":"Feature","geometry":{"type":"Point","coordinates":[112.409,29.7354]},"properties":{"name":"东岳寺","id":378,"count":30}},{"type":"Feature","geometry":{"type":"Point","coordinates":[112.1485,30.3691]},"properties":{"name":"荆州星空艺术馆（撩角创意空间）","id":379,"count":23}},{"type":"Feature","geometry":{"type":"Point","coordinates":[114.2773,30.5538]},"properties":{"name":"汉阳树","id":380,"count":32}},{"type":"Feature","geometry":{"type":"Point","coordinates":[112.2224,30.354]},"properties":{"name":"宾阳楼","id":381,"count":11}},{"type":"Feature","geometry":{"type":"Point","coordinates":[114.3139,30.3852]},"properties":{"name":"星期8古镇","id":382,"count":1}},{"type":"Feature","geometry":{"type":"Point","coordinates":[114.384,30.5763]},"properties":{"name":"碧潭观鱼","id":383,"count":32}},{"type":"Feature","geometry":{"type":"Point","coordinates":[112.2218,30.3532]},"properties":{"name":"张居正故居","id":384,"count":761}},{"type":"Feature","geometry":{"type":"Point","coordinates":[114.3696,30.543]},"properties":{"name":"武汉大学万林艺术博物馆","id":385,"count":17}},{"type":"Feature","geometry":{"type":"Point","coordinates":[114.3794,30.5169]},"properties":{"name":"卓刀泉","id":386,"count":45}},{"type":"Feature","geometry":{"type":"Point","coordinates":[114.215,30.5668]},"properties":{"name":"泡泡糖亲子水上儿童乐园","id":387,"count":9}},{"type":"Feature","geometry":{"type":"Point","coordinates":[114.3067,30.5564]},"properties":{"name":"武昌廉政文化公园","id":388,"count":83}},{"type":"Feature","geometry":{"type":"Point","coordinates":[112.2566,30.3215]},"properties":{"name":"中山公园动物园","id":389,"count":4}},{"type":"Feature","geometry":{"type":"Point","coordinates":[113.2017,29.9716]},"properties":{"name":"瞿家湾","id":390,"count":56}},{"type":"Feature","geometry":{"type":"Point","coordinates":[114.2852,30.67]},"properties":{"name":"极地动物展示区","id":391,"count":8}},{"type":"Feature","geometry":{"type":"Point","coordinates":[114.2675,30.5887]},"properties":{"name":"华中科技大学同济医学院-同济广场","id":392,"count":21}},{"type":"Feature","geometry":{"type":"Point","coordinates":[112.2047,30.3637]},"properties":{"name":"九老仙都","id":393,"count":170}},{"type":"Feature","geometry":{"type":"Point","coordinates":[112.2294,30.3213]},"properties":{"name":"荆州长江大桥","id":394,"count":18}},{"type":"Feature","geometry":{"type":"Point","coordinates":[114.31,30.5944]},"properties":{"name":"汉口美国领事馆旧址","id":395,"count":22}},{"type":"Feature","geometry":{"type":"Point","coordinates":[114.2347,30.6384]},"properties":{"name":"东方马城","id":396,"count":30}},{"type":"Feature","geometry":{"type":"Point","coordinates":[112.432,29.7303]},"properties":{"name":"南岳山森林公园","id":397,"count":74}},{"type":"Feature","geometry":{"type":"Point","coordinates":[111.5825,29.9701]},"properties":{"name":"洈水景区","id":398,"count":364}},{"type":"Feature","geometry":{"type":"Point","coordinates":[114.2759,30.7002]},"properties":{"name":"盘龙城国家考古遗址公园","id":399,"count":18}},{"type":"Feature","geometry":{"type":"Point","coordinates":[114.2912,30.5621]},"properties":{"name":"铁门关","id":400,"count":97}},{"type":"Feature","geometry":{"type":"Point","coordinates":[114.2982,30.5923]},"properties":{"name":"荣光堂","id":401,"count":30}},{"type":"Feature","geometry":{"type":"Point","coordinates":[114.7742,30.679]},"properties":{"name":"涨渡湖水上森林","id":402,"count":11}},{"type":"Feature","geometry":{"type":"Point","coordinates":[114.3036,30.5823]},"properties":{"name":"汉口日清洋行大楼","id":403,"count":30}},{"type":"Feature","geometry":{"type":"Point","coordinates":[112.3181,30.2742]},"properties":{"name":"荆楚非物质文化遗产技能传承院","id":404,"count":18}},{"type":"Feature","geometry":{"type":"Point","coordinates":[114.316,30.6119]},"properties":{"name":"八路军武汉办事处旧址纪念馆","id":405,"count":17}},{"type":"Feature","geometry":{"type":"Point","coordinates":[114.3043,30.5879]},"properties":{"name":"平和打包厂旧址","id":406,"count":30}},{"type":"Feature","geometry":{"type":"Point","coordinates":[112.5554,29.8069]},"properties":{"name":"麋鹿国家级自然保护区","id":407,"count":9}},{"type":"Feature","geometry":{"type":"Point","coordinates":[112.2551,30.3205]},"properties":{"name":"中山公园","id":408,"count":492}},{"type":"Feature","geometry":{"type":"Point","coordinates":[113.4186,29.829]},"properties":{"name":"金湾花海","id":409,"count":21}},{"type":"Feature","geometry":{"type":"Point","coordinates":[114.2444,30.6266]},"properties":{"name":"常青公园","id":410,"count":85}},{"type":"Feature","geometry":{"type":"Point","coordinates":[111.462,29.9906]},"properties":{"name":"新神洞","id":411,"count":19}},{"type":"Feature","geometry":{"type":"Point","coordinates":[112.2371,30.3209]},"properties":{"name":"万寿园","id":412,"count":12}},{"type":"Feature","geometry":{"type":"Point","coordinates":[114.1982,30.6123]},"properties":{"name":"硚口民族工业博物馆","id":413,"count":31}},{"type":"Feature","geometry":{"type":"Point","coordinates":[113.4693,29.82]},"properties":{"name":"洪湖革命历史博物馆","id":414,"count":21}},{"type":"Feature","geometry":{"type":"Point","coordinates":[114.3023,30.5859]},"properties":{"name":"上海路天主教堂","id":415,"count":24}},{"type":"Feature","geometry":{"type":"Point","coordinates":[112.1948,30.3616]},"properties":{"name":"铁女寺","id":416,"count":16}},{"type":"Feature","geometry":{"type":"Point","coordinates":[113.6021,29.9158]},"properties":{"name":"悦兮·半岛国际温泉度假村","id":417,"count":1}},{"type":"Feature","geometry":{"type":"Point","coordinates":[114.2084,30.1181]},"properties":{"name":"鑫农湖荷花湿地公园","id":418,"count":15}},{"type":"Feature","geometry":{"type":"Point","coordinates":[114.2697,30.513]},"properties":{"name":"杨泗港长江大桥","id":419,"count":25}},{"type":"Feature","geometry":{"type":"Point","coordinates":[112.414,30.0477]},"properties":{"name":"龙渊湖公园","id":420,"count":9}},{"type":"Feature","geometry":{"type":"Point","coordinates":[113.4497,29.8085]},"properties":{"name":"洪湖湿地","id":421,"count":4}},{"type":"Feature","geometry":{"type":"Point","coordinates":[114.2867,30.2508]},"properties":{"name":"江夏薰香悦花卉世界","id":422,"count":16}},{"type":"Feature","geometry":{"type":"Point","coordinates":[114.44,30.5655]},"properties":{"name":"松鼠乐园","id":423,"count":9}},{"type":"Feature","geometry":{"type":"Point","coordinates":[114.3877,30.579]},"properties":{"name":"鲁迅广场","id":424,"count":34}},{"type":"Feature","geometry":{"type":"Point","coordinates":[112.2047,30.3642]},"properties":{"name":"荆州玄妙观","id":425,"count":18}},{"type":"Feature","geometry":{"type":"Point","coordinates":[113.461,29.7992]},"properties":{"name":"洪湖烈士陵园","id":426,"count":6}},{"type":"Feature","geometry":{"type":"Point","coordinates":[114.2736,30.5606]},"properties":{"name":"向警予烈士陵园","id":427,"count":18}},{"type":"Feature","geometry":{"type":"Point","coordinates":[114.3121,30.5972]},"properties":{"name":"武汉防汛纪念碑","id":428,"count":118}},{"type":"Feature","geometry":{"type":"Point","coordinates":[112.0829,30.4414]},"properties":{"name":"八岭山古墓群","id":429,"count":9}},{"type":"Feature","geometry":{"type":"Point","coordinates":[112.2246,30.3539]},"properties":{"name":"金凤腾飞","id":430,"count":46}},{"type":"Feature","geometry":{"type":"Point","coordinates":[112.1939,30.3593]},"properties":{"name":"荆州古城三义街","id":431,"count":5}},{"type":"Feature","geometry":{"type":"Point","coordinates":[114.5071,31.0139]},"properties":{"name":"花乡茶谷旅游度假风景区","id":432,"count":66}},{"type":"Feature","geometry":{"type":"Point","coordinates":[114.3091,30.5995]},"properties":{"name":"坤厚里","id":433,"count":22}},{"type":"Feature","geometry":{"type":"Point","coordinates":[112.7355,29.6814]},"properties":{"name":"仙人洞度假村","id":434,"count":4}},{"type":"Feature","geometry":{"type":"Point","coordinates":[114.3029,30.5779]},"properties":{"name":"武汉关码头","id":435,"count":25}},{"type":"Feature","geometry":{"type":"Point","coordinates":[114.3899,30.5106]},"properties":{"name":"白日梦书店","id":436,"count":20}},{"type":"Feature","geometry":{"type":"Point","coordinates":[114.4001,30.5954]},"properties":{"name":"武汉欢乐谷-电动代步车","id":437,"count":9}},{"type":"Feature","geometry":{"type":"Point","coordinates":[114.0824,30.4972]},"properties":{"name":"武汉网红小镇","id":438,"count":5}},{"type":"Feature","geometry":{"type":"Point","coordinates":[113.4622,29.8027]},"properties":{"name":"湘鄂西历史革命纪念馆","id":439,"count":21}},{"type":"Feature","geometry":{"type":"Point","coordinates":[112.2754,30.3618]},"properties":{"name":"星期8小镇（荆州店）","id":440,"count":3}},{"type":"Feature","geometry":{"type":"Point","coordinates":[113.6018,29.9154]},"properties":{"name":"悦兮半岛温泉","id":441,"count":1}},{"type":"Feature","geometry":{"type":"Point","coordinates":[112.4297,29.7181]},"properties":{"name":"陈家湖公园","id":442,"count":4}},{"type":"Feature","geometry":{"type":"Point","coordinates":[114.408,30.612]},"properties":{"name":"北洋桥","id":443,"count":31}},{"type":"Feature","geometry":{"type":"Point","coordinates":[112.2285,30.4259]},"properties":{"name":"荆州园博园","id":444,"count":882}},{"type":"Feature","geometry":{"type":"Point","coordinates":[114.3849,30.5802]},"properties":{"name":"东湖海洋乐园","id":445,"count":0}},{"type":"Feature","geometry":{"type":"Point","coordinates":[114.3246,30.5857]},"properties":{"name":"临江大道","id":446,"count":66}},{"type":"Feature","geometry":{"type":"Point","coordinates":[111.3129,30.0243]},"properties":{"name":"曲尺河温泉度假村","id":447,"count":342}},{"type":"Feature","geometry":{"type":"Point","coordinates":[114.3018,30.6657]},"properties":{"name":"武汉规划展示馆","id":448,"count":10}},{"type":"Feature","geometry":{"type":"Point","coordinates":[114.2623,30.6153]},"properties":{"name":"后襄河公园","id":449,"count":62}},{"type":"Feature","geometry":{"type":"Point","coordinates":[114.2092,30.593]},"properties":{"name":"汉江湾体育公园","id":450,"count":14}},{"type":"Feature","geometry":{"type":"Point","coordinates":[114.2634,30.5766]},"properties":{"name":"硚口公园","id":451,"count":36}},{"type":"Feature","geometry":{"type":"Point","coordinates":[114.2616,30.5654]},"properties":{"name":"月湖公园","id":452,"count":103}},{"type":"Feature","geometry":{"type":"Point","coordinates":[114.2757,30.6162]},"properties":{"name":"万达宝贝王(武汉菱角湖店)","id":453,"count":14}},{"type":"Feature","geometry":{"type":"Point","coordinates":[114.3157,30.5582]},"properties":{"name":"瑞典教区旧址","id":454,"count":36}},{"type":"Feature","geometry":{"type":"Point","coordinates":[112.2379,30.0639]},"properties":{"name":"三袁文化广场","id":455,"count":3}},{"type":"Feature","geometry":{"type":"Point","coordinates":[114.2716,30.6019]},"properties":{"name":"花园道艺术商业街","id":456,"count":29}},{"type":"Feature","geometry":{"type":"Point","coordinates":[114.3824,30.5677]},"properties":{"name":"沧浪亭","id":457,"count":14}},{"type":"Feature","geometry":{"type":"Point","coordinates":[114.3219,30.6497]},"properties":{"name":"武汉百步亭恒温游泳馆","id":458,"count":10}},{"type":"Feature","geometry":{"type":"Point","coordinates":[115.0166,30.875]},"properties":{"name":"报恩禅寺","id":459,"count":18}},{"type":"Feature","geometry":{"type":"Point","coordinates":[114.3834,30.5794]},"properties":{"name":"异国风情园","id":460,"count":20}},{"type":"Feature","geometry":{"type":"Point","coordinates":[111.3785,30.0451]},"properties":{"name":"卸甲坪旅游区","id":461,"count":0}},{"type":"Feature","geometry":{"type":"Point","coordinates":[114.4025,30.5121]},"properties":{"name":"遇见北欧错觉艺术馆武汉站","id":462,"count":15}},{"type":"Feature","geometry":{"type":"Point","coordinates":[114.4027,30.5313]},"properties":{"name":"南望山","id":463,"count":19}},{"type":"Feature","geometry":{"type":"Point","coordinates":[112.2668,30.3112]},"properties":{"name":"抖音网红公园（中商店）","id":464,"count":1}},{"type":"Feature","geometry":{"type":"Point","coordinates":[112.2577,30.3282]},"properties":{"name":"鸡公山遗址 ","id":465,"count":1}},{"type":"Feature","geometry":{"type":"Point","coordinates":[112.1785,29.6727]},"properties":{"name":"黄山头风景旅游区","id":466,"count":1}},{"type":"Feature","geometry":{"type":"Point","coordinates":[114.3803,30.5803]},"properties":{"name":"梨园-广场","id":467,"count":14}},{"type":"Feature","geometry":{"type":"Point","coordinates":[114.2721,30.5754]},"properties":{"name":"中山大道","id":468,"count":81}},{"type":"Feature","geometry":{"type":"Point","coordinates":[114.2844,30.6703]},"properties":{"name":"迷你动物城","id":469,"count":1}},{"type":"Feature","geometry":{"type":"Point","coordinates":[114.1741,30.6227]},"properties":{"name":"全明星滑冰俱乐部","id":470,"count":13}},{"type":"Feature","geometry":{"type":"Point","coordinates":[114.2748,30.5525]},"properties":{"name":"西大街","id":471,"count":81}},{"type":"Feature","geometry":{"type":"Point","coordinates":[112.2479,30.3936]},"properties":{"name":"大禹治水","id":472,"count":1}},{"type":"Feature","geometry":{"type":"Point","coordinates":[112.2849,30.3223]},"properties":{"name":"楚天通航跳伞飞行营地","id":473,"count":0}},{"type":"Feature","geometry":{"type":"Point","coordinates":[113.4789,29.8124]},"properties":{"name":"荷花广场","id":474,"count":2}},{"type":"Feature","geometry":{"type":"Point","coordinates":[114.3469,30.5632]},"properties":{"name":"中央文化旅游区汉街","id":475,"count":19}},{"type":"Feature","geometry":{"type":"Point","coordinates":[113.4834,29.832]},"properties":{"name":"水上乐园","id":476,"count":1}},{"type":"Feature","geometry":{"type":"Point","coordinates":[114.342,30.5016]},"properties":{"name":"南湖幸福湾水上公园","id":477,"count":48}},{"type":"Feature","geometry":{"type":"Point","coordinates":[112.1868,30.3593]},"properties":{"name":"荆州博物馆","id":478,"count":502}},{"type":"Feature","geometry":{"type":"Point","coordinates":[114.3928,30.4796]},"properties":{"name":"中南财经政法大学","id":479,"count":85}},{"type":"Feature","geometry":{"type":"Point","coordinates":[114.2338,30.6398]},"properties":{"name":"沙雕文化公园","id":480,"count":15}},{"type":"Feature","geometry":{"type":"Point","coordinates":[112.2359,30.0643]},"properties":{"name":"白云避暑山庄 ","id":481,"count":1}},{"type":"Feature","geometry":{"type":"Point","coordinates":[114.2243,30.5926]},"properties":{"name":"博学中学教堂","id":482,"count":31}},{"type":"Feature","geometry":{"type":"Point","coordinates":[111.6608,30.1673]},"properties":{"name":"中桥一队","id":483,"count":1}},{"type":"Feature","geometry":{"type":"Point","coordinates":[114.2798,30.5407]},"properties":{"name":"鹦鹉洲汉阳桥梁主题公园","id":484,"count":13}},{"type":"Feature","geometry":{"type":"Point","coordinates":[113.7808,30.323]},"properties":{"name":"蔡甸消泗油菜花","id":485,"count":41}},{"type":"Feature","geometry":{"type":"Point","coordinates":[114.3119,30.5591]},"properties":{"name":"得胜桥","id":486,"count":102}},{"type":"Feature","geometry":{"type":"Point","coordinates":[112.1524,30.2931]},"properties":{"name":"北闸风景区","id":487,"count":1}},{"type":"Feature","geometry":{"type":"Point","coordinates":[112.177,30.3657]},"properties":{"name":"荆州区文物局太晖观文保所","id":488,"count":1}},{"type":"Feature","geometry":{"type":"Point","coordinates":[112.2748,30.3624]},"properties":{"name":"冲天回旋","id":489,"count":1}},{"type":"Feature","geometry":{"type":"Point","coordinates":[114.2845,30.5977]},"properties":{"name":"小南湖公园","id":490,"count":42}},{"type":"Feature","geometry":{"type":"Point","coordinates":[113.4698,29.8061]},"properties":{"name":"洪湖市98抗洪纪念碑","id":491,"count":1}},{"type":"Feature","geometry":{"type":"Point","coordinates":[114.443,30.5125]},"properties":{"name":"东湖吹笛景区-马鞍山森林公园","id":492,"count":12}},{"type":"Feature","geometry":{"type":"Point","coordinates":[114.2845,30.5568]},"properties":{"name":"汉阳莲花湖公园","id":493,"count":13}},{"type":"Feature","geometry":{"type":"Point","coordinates":[111.7798,30.1645]},"properties":{"name":"大悲寺","id":494,"count":1}},{"type":"Feature","geometry":{"type":"Point","coordinates":[114.1554,30.6252]},"properties":{"name":"三尤酒瓶博物馆","id":495,"count":30}},{"type":"Feature","geometry":{"type":"Point","coordinates":[112.2479,30.3936]},"properties":{"name":"千古风华","id":496,"count":1}},{"type":"Feature","geometry":{"type":"Point","coordinates":[113.084,29.8012]},"properties":{"name":"(监利服务区)长途客车司机疲劳休息区","id":497,"count":1}},{"type":"Feature","geometry":{"type":"Point","coordinates":[114.2884,30.6089]},"properties":{"name":"武汉图书馆","id":498,"count":15}},{"type":"Feature","geometry":{"type":"Point","coordinates":[112.0217,30.6163]},"properties":{"name":"熊家冢遗址博物馆","id":499,"count":3}},{"type":"Feature","geometry":{"type":"Point","coordinates":[114.2345,30.5219]},"properties":{"name":"武汉市桥梁博物馆","id":500,"count":10}},{"type":"Feature","geometry":{"type":"Point","coordinates":[114.3305,30.3752]},"properties":{"name":"谭鑫培公园","id":501,"count":20}},{"type":"Feature","geometry":{"type":"Point","coordinates":[114.2593,31.2234]},"properties":{"name":"素山寺国家森林公园","id":502,"count":1}},{"type":"Feature","geometry":{"type":"Point","coordinates":[114.4146,30.5558]},"properties":{"name":"东湖杜鹃园","id":503,"count":26}},{"type":"Feature","geometry":{"type":"Point","coordinates":[114.2757,30.6018]},"properties":{"name":"西北湖绿化广场","id":504,"count":149}},{"type":"Feature","geometry":{"type":"Point","coordinates":[114.3054,30.5567]},"properties":{"name":"陈潭秋烈士纪念馆","id":505,"count":42}},{"type":"Feature","geometry":{"type":"Point","coordinates":[112.9928,30.0366]},"properties":{"name":"湘鄂西革命根据地纪念馆","id":506,"count":2}},{"type":"Feature","geometry":{"type":"Point","coordinates":[114.5244,30.4969]},"properties":{"name":"中国建筑科技馆","id":507,"count":9}},{"type":"Feature","geometry":{"type":"Point","coordinates":[112.2479,30.3936]},"properties":{"name":"飞跃狗熊岭","id":508,"count":1}},{"type":"Feature","geometry":{"type":"Point","coordinates":[114.3176,30.6122]},"properties":{"name":"汉口新四军军部旧址纪念馆","id":509,"count":10}},{"type":"Feature","geometry":{"type":"Point","coordinates":[114.2966,30.5908]},"properties":{"name":"吴家花园","id":510,"count":23}},{"type":"Feature","geometry":{"type":"Point","coordinates":[112.223,30.3523]},"properties":{"name":"九龙桥","id":511,"count":55}},{"type":"Feature","geometry":{"type":"Point","coordinates":[114.2092,30.593]},"properties":{"name":"汉江湾体育公园","id":512,"count":14}},{"type":"Feature","geometry":{"type":"Point","coordinates":[112.9915,30.0394]},"properties":{"name":"周老嘴景区","id":513,"count":0}},{"type":"Feature","geometry":{"type":"Point","coordinates":[114.0966,30.7155]},"properties":{"name":"普罗旺斯薰衣草庄园","id":514,"count":7}},{"type":"Feature","geometry":{"type":"Point","coordinates":[114.3127,30.5585]},"properties":{"name":"崇真堂","id":515,"count":21}},{"type":"Feature","geometry":{"type":"Point","coordinates":[114.3174,30.5576]},"properties":{"name":"昙华林徐源泉公馆","id":516,"count":20}},{"type":"Feature","geometry":{"type":"Point","coordinates":[113.9525,30.4778]},"properties":{"name":"九真桃源","id":517,"count":23}},{"type":"Feature","geometry":{"type":"Point","coordinates":[114.3823,30.5689]},"properties":{"name":"亚洲棋院","id":518,"count":12}},{"type":"Feature","geometry":{"type":"Point","coordinates":[114.3088,30.5922]},"properties":{"name":"宋庆龄汉口旧居纪念馆","id":519,"count":39}},{"type":"Feature","geometry":{"type":"Point","coordinates":[114.2835,30.7149]},"properties":{"name":"巨龙大道名流人和天地","id":520,"count":30}},{"type":"Feature","geometry":{"type":"Point","coordinates":[114.3432,30.6019]},"properties":{"name":"四美塘公园","id":521,"count":24}},{"type":"Feature","geometry":{"type":"Point","coordinates":[114.3083,30.5352]},"properties":{"name":"圣米迦勒堂","id":522,"count":24}},{"type":"Feature","geometry":{"type":"Point","coordinates":[114.3198,30.6116]},"properties":{"name":"武汉钻石艺术博物馆","id":523,"count":35}},{"type":"Feature","geometry":{"type":"Point","coordinates":[114.0392,30.6032]},"properties":{"name":"石榴红村","id":524,"count":36}},{"type":"Feature","geometry":{"type":"Point","coordinates":[112.913,29.8353]},"properties":{"name":"玉沙广场","id":525,"count":2}},{"type":"Feature","geometry":{"type":"Point","coordinates":[114.3067,30.5898]},"properties":{"name":"界立方创意空间","id":526,"count":19}},{"type":"Feature","geometry":{"type":"Point","coordinates":[114.3971,30.875]},"properties":{"name":"双凤亭","id":527,"count":31}},{"type":"Feature","geometry":{"type":"Point","coordinates":[112.2726,30.309]},"properties":{"name":"荆州男人街 ","id":528,"count":1}},{"type":"Feature","geometry":{"type":"Point","coordinates":[114.4311,30.4079]},"properties":{"name":"藏龙岛国家湿地公园","id":529,"count":9}},{"type":"Feature","geometry":{"type":"Point","coordinates":[114.443,30.5125]},"properties":{"name":"东湖吹笛景区-马鞍山森林公园","id":530,"count":12}},{"type":"Feature","geometry":{"type":"Point","coordinates":[114.2698,30.7039]},"properties":{"name":"盘龙城遗址博物院","id":531,"count":20}},{"type":"Feature","geometry":{"type":"Point","coordinates":[112.1905,30.3539]},"properties":{"name":"关羽祠","id":532,"count":455}},{"type":"Feature","geometry":{"type":"Point","coordinates":[114.3188,30.5476]},"properties":{"name":"抱冰堂","id":533,"count":25}},{"type":"Feature","geometry":{"type":"Point","coordinates":[114.382,30.5682]},"properties":{"name":"听涛轩","id":534,"count":19}},{"type":"Feature","geometry":{"type":"Point","coordinates":[111.7821,30.1794]},"properties":{"name":"梵高画廊","id":535,"count":3}},{"type":"Feature","geometry":{"type":"Point","coordinates":[112.224,30.3518]},"properties":{"name":"九龙渊公园","id":536,"count":10}},{"type":"Feature","geometry":{"type":"Point","coordinates":[112.2479,30.3936]},"properties":{"name":"荆州方特东方神画","id":537,"count":4778}},{"type":"Feature","geometry":{"type":"Point","coordinates":[112.2239,30.3567]},"properties":{"name":"荆州古城","id":538,"count":2452}},{"type":"Feature","geometry":{"type":"Point","coordinates":[112.9888,30.0403]},"properties":{"name":"柳直旬烈士纪念园","id":539,"count":1}},{"type":"Feature","geometry":{"type":"Point","coordinates":[112.2748,30.3624]},"properties":{"name":"奇幻漂流","id":540,"count":1}},{"type":"Feature","geometry":{"type":"Point","coordinates":[112.2706,30.334]},"properties":{"name":"荆州市图书馆新馆","id":541,"count":3}},{"type":"Feature","geometry":{"type":"Point","coordinates":[112.9122,29.8315]},"properties":{"name":"常安步行街 ","id":542,"count":1}},{"type":"Feature","geometry":{"type":"Point","coordinates":[112.2479,30.3936]},"properties":{"name":"九州神韵","id":543,"count":1}},{"type":"Feature","geometry":{"type":"Point","coordinates":[114.3927,30.4713]},"properties":{"name":"锦绣龙城游泳馆","id":544,"count":14}},{"type":"Feature","geometry":{"type":"Point","coordinates":[112.5362,29.6814]},"properties":{"name":"走马岭遗址 ","id":545,"count":1}},{"type":"Feature","geometry":{"type":"Point","coordinates":[114.3081,30.5939]},"properties":{"name":"同兴里","id":546,"count":1}},{"type":"Feature","geometry":{"type":"Point","coordinates":[114.3148,30.5313]},"properties":{"name":"楚望台遗址公园","id":547,"count":21}},{"type":"Feature","geometry":{"type":"Point","coordinates":[112.2479,30.3936]},"properties":{"name":"缤纷华夏","id":548,"count":1}},{"type":"Feature","geometry":{"type":"Point","coordinates":[114.2778,30.5531]},"properties":{"name":"显正街天主堂","id":549,"count":24}},{"type":"Feature","geometry":{"type":"Point","coordinates":[112.2748,30.3624]},"properties":{"name":"超级大喇叭","id":550,"count":0}},{"type":"Feature","geometry":{"type":"Point","coordinates":[114.373,30.5576]},"properties":{"name":"毛泽东故居","id":551,"count":1003}},{"type":"Feature","geometry":{"type":"Point","coordinates":[114.2969,30.5905]},"properties":{"name":"吴佩孚公馆旧址","id":552,"count":9}},{"type":"Feature","geometry":{"type":"Point","coordinates":[114.4925,30.5435]},"properties":{"name":"光谷半岛亲青乐园","id":553,"count":5}},{"type":"Feature","geometry":{"type":"Point","coordinates":[114.3885,30.5779]},"properties":{"name":"落霞水榭","id":554,"count":12}},{"type":"Feature","geometry":{"type":"Point","coordinates":[114.2856,30.6699]},"properties":{"name":"欢乐秀场","id":555,"count":2}},{"type":"Feature","geometry":{"type":"Point","coordinates":[115.6355,30.9638]},"properties":{"name":"进士河漂流","id":556,"count":177}},{"type":"Feature","geometry":{"type":"Point","coordinates":[114.28,31.1785]},"properties":{"name":"木兰天池滑草场","id":557,"count":3}},{"type":"Feature","geometry":{"type":"Point","coordinates":[114.3314,30.6403]},"properties":{"name":"武汉二七纪念馆","id":558,"count":9}},{"type":"Feature","geometry":{"type":"Point","coordinates":[114.2594,30.6201]},"properties":{"name":"色界日记潮流美拍艺术馆","id":559,"count":6}},{"type":"Feature","geometry":{"type":"Point","coordinates":[114.276,30.7001]},"properties":{"name":"盘龙城遗址-文物陈列室","id":560,"count":6}},{"type":"Feature","geometry":{"type":"Point","coordinates":[114.2775,30.554]},"properties":{"name":"白求恩纪念馆","id":561,"count":12}},{"type":"Feature","geometry":{"type":"Point","coordinates":[114.3054,30.5907]},"properties":{"name":"湖北省电力博物馆","id":562,"count":8}},{"type":"Feature","geometry":{"type":"Point","coordinates":[114.4434,30.5647]},"properties":{"name":"赵氏花园","id":563,"count":7}},{"type":"Feature","geometry":{"type":"Point","coordinates":[114.2723,30.6068]},"properties":{"name":"西北湖","id":564,"count":11}},{"type":"Feature","geometry":{"type":"Point","coordinates":[114.2884,30.5893]},"properties":{"name":"雷山温泉度假村","id":565,"count":1}},{"type":"Feature","geometry":{"type":"Point","coordinates":[114.4132,30.4716]},"properties":{"name":"全明星蹦床运动馆（光谷店）","id":566,"count":1}},{"type":"Feature","geometry":{"type":"Point","coordinates":[114.4446,30.517]},"properties":{"name":"半山荷园","id":567,"count":10}},{"type":"Feature","geometry":{"type":"Point","coordinates":[114.2906,31.185]},"properties":{"name":"外婆桥（木兰天池景区）","id":568,"count":9}},{"type":"Feature","geometry":{"type":"Point","coordinates":[114.3042,30.582]},"properties":{"name":"长江武汉关","id":569,"count":8}},{"type":"Feature","geometry":{"type":"Point","coordinates":[111.3129,30.0243]},"properties":{"name":"太空舱","id":570,"count":0}},{"type":"Feature","geometry":{"type":"Point","coordinates":[114.3703,30.5459]},"properties":{"name":"老斋舍","id":571,"count":8}},{"type":"Feature","geometry":{"type":"Point","coordinates":[114.1327,30.6423]},"properties":{"name":"码头潭文化遗址公园","id":572,"count":11}},{"type":"Feature","geometry":{"type":"Point","coordinates":[114.2989,30.6488]},"properties":{"name":"后湖世纪家园游泳馆","id":573,"count":6}},{"type":"Feature","geometry":{"type":"Point","coordinates":[114.3131,30.5598]},"properties":{"name":"石瑛旧居","id":574,"count":18}},{"type":"Feature","geometry":{"type":"Point","coordinates":[114.3052,30.5935]},"properties":{"name":"中共中央机关旧址纪念馆","id":575,"count":5}},{"type":"Feature","geometry":{"type":"Point","coordinates":[114.2749,30.5904]},"properties":{"name":"公园社区","id":576,"count":1}},{"type":"Feature","geometry":{"type":"Point","coordinates":[114.3119,30.55]},"properties":{"name":"白云阁","id":577,"count":5}},{"type":"Feature","geometry":{"type":"Point","coordinates":[114.2468,30.57]},"properties":{"name":"华润·张之洞纪念公园","id":578,"count":11}},{"type":"Feature","geometry":{"type":"Point","coordinates":[114.3284,30.3704]},"properties":{"name":"迪乐园（江夏店）","id":579,"count":0}},{"type":"Feature","geometry":{"type":"Point","coordinates":[114.3538,30.595]},"properties":{"name":"恒星乐高研发中心","id":580,"count":18}},{"type":"Feature","geometry":{"type":"Point","coordinates":[114.3818,30.5747]},"properties":{"name":"濒湖画廊","id":581,"count":18}},{"type":"Feature","geometry":{"type":"Point","coordinates":[114.418,30.5182]},"properties":{"name":"华中科技大学图书馆(主校区)","id":582,"count":11}},{"type":"Feature","geometry":{"type":"Point","coordinates":[114.231,30.6242]},"properties":{"name":"武汉园博园-东广场","id":583,"count":14}},{"type":"Feature","geometry":{"type":"Point","coordinates":[114.3679,30.5433]},"properties":{"name":"六一纪念亭","id":584,"count":18}},{"type":"Feature","geometry":{"type":"Point","coordinates":[114.3626,30.5518]},"properties":{"name":"东湖南路水生所","id":585,"count":17}},{"type":"Feature","geometry":{"type":"Point","coordinates":[114.3016,30.5835]},"properties":{"name":"迷斯伍德星空博物馆","id":586,"count":1}},{"type":"Feature","geometry":{"type":"Point","coordinates":[114.3016,30.5829]},"properties":{"name":"独角兽星空艺术馆","id":587,"count":5}},{"type":"Feature","geometry":{"type":"Point","coordinates":[114.1437,30.7557]},"properties":{"name":"柏泉古井","id":588,"count":9}},{"type":"Feature","geometry":{"type":"Point","coordinates":[114.2768,30.5956]},"properties":{"name":"中山公园游乐场-谷丁迷宫","id":589,"count":5}},{"type":"Feature","geometry":{"type":"Point","coordinates":[114.3715,30.5727]},"properties":{"name":"楚天181文化创意产业园","id":590,"count":10}},{"type":"Feature","geometry":{"type":"Point","coordinates":[114.379,30.5613]},"properties":{"name":"寓言园","id":591,"count":19}},{"type":"Feature","geometry":{"type":"Point","coordinates":[114.3996,30.5164]},"properties":{"name":"旺山公园","id":592,"count":19}},{"type":"Feature","geometry":{"type":"Point","coordinates":[112.2748,30.3624]},"properties":{"name":"儿童趣味滑梯","id":593,"count":1}},{"type":"Feature","geometry":{"type":"Point","coordinates":[112.2748,30.3624]},"properties":{"name":"山涧游泳池","id":594,"count":1}},{"type":"Feature","geometry":{"type":"Point","coordinates":[114.3998,30.6]},"properties":{"name":"飞越长江","id":595,"count":5}},{"type":"Feature","geometry":{"type":"Point","coordinates":[114.4677,30.9621]},"properties":{"name":"萌宠乐园（木兰草原店）","id":596,"count":5}},{"type":"Feature","geometry":{"type":"Point","coordinates":[114.4174,30.5577]},"properties":{"name":"朱碑亭","id":597,"count":11}},{"type":"Feature","geometry":{"type":"Point","coordinates":[112.2767,30.3619]},"properties":{"name":"玻璃栈桥","id":598,"count":1}},{"type":"Feature","geometry":{"type":"Point","coordinates":[115.7639,31.1014]},"properties":{"name":"天堂寨风景区","id":599,"count":974}},{"type":"Feature","geometry":{"type":"Point","coordinates":[114.527,30.2463]},"properties":{"name":"梁子湖风景区","id":600,"count":3}},{"type":"Feature","geometry":{"type":"Point","coordinates":[114.3342,30.3626]},"properties":{"name":"新世纪公园","id":601,"count":17}},{"type":"Feature","geometry":{"type":"Point","coordinates":[112.2748,30.3624]},"properties":{"name":"惊涛海啸池","id":602,"count":1}},{"type":"Feature","geometry":{"type":"Point","coordinates":[114.4156,30.4847]},"properties":{"name":"软件园广场","id":603,"count":16}},{"type":"Feature","geometry":{"type":"Point","coordinates":[112.7008,29.9841]},"properties":{"name":"监利县汪桥镇灵隐寺","id":604,"count":0}},{"type":"Feature","geometry":{"type":"Point","coordinates":[114.4847,30.5206]},"properties":{"name":"辛亥革命纪念园","id":605,"count":6}},{"type":"Feature","geometry":{"type":"Point","coordinates":[114.416,30.5544]},"properties":{"name":"磨山友谊林","id":606,"count":10}},{"type":"Feature","geometry":{"type":"Point","coordinates":[115.5784,31.1163]},"properties":{"name":"薄刀峰","id":607,"count":881}},{"type":"Feature","geometry":{"type":"Point","coordinates":[112.2479,30.3936]},"properties":{"name":"神州塔","id":608,"count":1}},{"type":"Feature","geometry":{"type":"Point","coordinates":[114.4042,30.6694]},"properties":{"name":"天兴洲","id":609,"count":6}},{"type":"Feature","geometry":{"type":"Point","coordinates":[114.4024,30.573]},"properties":{"name":"湖光阁","id":610,"count":1}},{"type":"Feature","geometry":{"type":"Point","coordinates":[112.1135,30.4314]},"properties":{"name":"飞鼠娱乐游乐园   ","id":611,"count":1}},{"type":"Feature","geometry":{"type":"Point","coordinates":[114.4118,30.6379]},"properties":{"name":"青山区青少年宫水上乐园","id":612,"count":1}},{"type":"Feature","geometry":{"type":"Point","coordinates":[112.2767,30.3619]},"properties":{"name":"深海探秘","id":613,"count":1}},{"type":"Feature","geometry":{"type":"Point","coordinates":[114.2744,30.5604]},"properties":{"name":"红色战士公墓","id":614,"count":9}},{"type":"Feature","geometry":{"type":"Point","coordinates":[114.3404,30.5667]},"properties":{"name":"东湖游船汉街码头","id":615,"count":6}},{"type":"Feature","geometry":{"type":"Point","coordinates":[114.4149,30.6545]},"properties":{"name":"天兴洲大桥公园","id":616,"count":8}},{"type":"Feature","geometry":{"type":"Point","coordinates":[114.2416,30.5819]},"properties":{"name":"奇趣蛋壳公园","id":617,"count":5}},{"type":"Feature","geometry":{"type":"Point","coordinates":[114.3821,30.5682]},"properties":{"name":"东湖游泳池","id":618,"count":4}},{"type":"Feature","geometry":{"type":"Point","coordinates":[114.3129,30.5479]},"properties":{"name":"鄂军都督府","id":619,"count":10}},{"type":"Feature","geometry":{"type":"Point","coordinates":[114.3798,30.5629]},"properties":{"name":"苍柏园","id":620,"count":17}},{"type":"Feature","geometry":{"type":"Point","coordinates":[115.266,30.8089]},"properties":{"name":"罗田三里畈温泉","id":621,"count":781}},{"type":"Feature","geometry":{"type":"Point","coordinates":[114.3285,30.6108]},"properties":{"name":"武汉长江二桥","id":622,"count":13}},{"type":"Feature","geometry":{"type":"Point","coordinates":[114.3864,30.579]},"properties":{"name":"长天楼","id":623,"count":22}},{"type":"Feature","geometry":{"type":"Point","coordinates":[114.29,30.6015]},"properties":{"name":"武汉剧院（台北路兑票点）","id":624,"count":9}},{"type":"Feature","geometry":{"type":"Point","coordinates":[113.9564,30.4824]},"properties":{"name":"武汉大好河山休闲旅游区","id":625,"count":11}},{"type":"Feature","geometry":{"type":"Point","coordinates":[114.389,30.6457]},"properties":{"name":"青山江滩游泳池","id":626,"count":4}},{"type":"Feature","geometry":{"type":"Point","coordinates":[113.0203,29.8102]},"properties":{"name":"护国仙山祖师庙","id":627,"count":0}},{"type":"Feature","geometry":{"type":"Point","coordinates":[114.4001,30.5959]},"properties":{"name":"东湖塔","id":628,"count":5}},{"type":"Feature","geometry":{"type":"Point","coordinates":[114.4214,30.6446]},"properties":{"name":"戴家湖公园","id":629,"count":12}},{"type":"Feature","geometry":{"type":"Point","coordinates":[114.445,30.4999]},"properties":{"name":"文华学院","id":630,"count":8}},{"type":"Feature","geometry":{"type":"Point","coordinates":[114.3091,30.5503]},"properties":{"name":"岳飞铜雕","id":631,"count":1}},{"type":"Feature","geometry":{"type":"Point","coordinates":[112.2767,30.3619]},"properties":{"name":"山涧丛林","id":632,"count":1}},{"type":"Feature","geometry":{"type":"Point","coordinates":[114.3537,30.5595]},"properties":{"name":"放鹰桥","id":633,"count":13}},{"type":"Feature","geometry":{"type":"Point","coordinates":[114.3286,30.4765]},"properties":{"name":"创意天地","id":634,"count":12}},{"type":"Feature","geometry":{"type":"Point","coordinates":[111.758,30.1789]},"properties":{"name":"松滋乐乡公园","id":635,"count":0}},{"type":"Feature","geometry":{"type":"Point","coordinates":[114.41,30.5095]},"properties":{"name":"武汉西班牙风情街 ","id":636,"count":1}},{"type":"Feature","geometry":{"type":"Point","coordinates":[113.461,29.7992]},"properties":{"name":"湘鄂西苏区革命烈士纪念园","id":637,"count":1}},{"type":"Feature","geometry":{"type":"Point","coordinates":[114.2738,30.5683]},"properties":{"name":"江汉桥","id":638,"count":20}},{"type":"Feature","geometry":{"type":"Point","coordinates":[114.4693,30.9692]},"properties":{"name":"跑马场（木兰草原）","id":639,"count":6}},{"type":"Feature","geometry":{"type":"Point","coordinates":[112.22,30.3716]},"properties":{"name":"袋鼠玩趣城","id":640,"count":0}},{"type":"Feature","geometry":{"type":"Point","coordinates":[114.3271,30.5278]},"properties":{"name":"5.5创意产业园","id":641,"count":16}},{"type":"Feature","geometry":{"type":"Point","coordinates":[112.2748,30.3624]},"properties":{"name":"惊奇巨兽碗","id":642,"count":1}},{"type":"Feature","geometry":{"type":"Point","coordinates":[112.1261,30.2241]},"properties":{"name":"荆州玫瑰园","id":643,"count":0}},{"type":"Feature","geometry":{"type":"Point","coordinates":[114.214,30.5637]},"properties":{"name":"why why剧本杀谋杀之谜(王家湾店)","id":644,"count":8}},{"type":"Feature","geometry":{"type":"Point","coordinates":[114.4448,30.5148]},"properties":{"name":"晓塘春色","id":645,"count":14}},{"type":"Feature","geometry":{"type":"Point","coordinates":[114.2718,30.5781]},"properties":{"name":"武汉硚口区青少年恒温游泳馆","id":646,"count":6}},{"type":"Feature","geometry":{"type":"Point","coordinates":[114.2747,30.5985]},"properties":{"name":"万松园","id":647,"count":12}},{"type":"Feature","geometry":{"type":"Point","coordinates":[114.2507,30.5122]},"properties":{"name":"武汉国际会议中心","id":648,"count":5}},{"type":"Feature","geometry":{"type":"Point","coordinates":[115.2397,31.0902]},"properties":{"name":"龟峰山","id":649,"count":478}},{"type":"Feature","geometry":{"type":"Point","coordinates":[114.403,30.5137]},"properties":{"name":"汉古艺术馆","id":650,"count":9}},{"type":"Feature","geometry":{"type":"Point","coordinates":[114.4415,30.5566]},"properties":{"name":"清河桥","id":651,"count":2}},{"type":"Feature","geometry":{"type":"Point","coordinates":[114.3757,30.5202]},"properties":{"name":"第三空间(虎泉店)","id":652,"count":7}},{"type":"Feature","geometry":{"type":"Point","coordinates":[114.4041,30.5142]},"properties":{"name":"玩美星空艺术馆","id":653,"count":4}},{"type":"Feature","geometry":{"type":"Point","coordinates":[114.0789,30.3176]},"properties":{"name":"纱帽公园","id":654,"count":5}},{"type":"Feature","geometry":{"type":"Point","coordinates":[114.2852,30.6694]},"properties":{"name":"欢乐岛","id":655,"count":1}},{"type":"Feature","geometry":{"type":"Point","coordinates":[115.1129,30.8665]},"properties":{"name":"大崎山","id":656,"count":15}},{"type":"Feature","geometry":{"type":"Point","coordinates":[114.8832,30.4424]},"properties":{"name":"安国寺","id":657,"count":28}},{"type":"Feature","geometry":{"type":"Point","coordinates":[114.4445,30.2829]},"properties":{"name":"小朱湾","id":658,"count":3}},{"type":"Feature","geometry":{"type":"Point","coordinates":[114.5976,31.2603]},"properties":{"name":"中国红安将军影视城","id":659,"count":34}},{"type":"Feature","geometry":{"type":"Point","coordinates":[115.9493,30.2749]},"properties":{"name":"龙池河大峡谷景区","id":660,"count":12}},{"type":"Feature","geometry":{"type":"Point","coordinates":[115.7165,31.0645]},"properties":{"name":"红花尖滑雪度假村","id":661,"count":61}},{"type":"Feature","geometry":{"type":"Point","coordinates":[115.4804,30.217]},"properties":{"name":"湖北鄂人谷生态旅游度假村","id":662,"count":53}},{"type":"Feature","geometry":{"type":"Point","coordinates":[115.8547,30.9802]},"properties":{"name":"英山县天马寨风景区","id":663,"count":65}},{"type":"Feature","geometry":{"type":"Point","coordinates":[114.2297,30.6249]},"properties":{"name":"武汉园博园-凉亭","id":664,"count":6}},{"type":"Feature","geometry":{"type":"Point","coordinates":[115.3627,30.0514]},"properties":{"name":"黄冈市蕲春李时珍纪念馆","id":665,"count":12}},{"type":"Feature","geometry":{"type":"Point","coordinates":[114.9064,30.4474]},"properties":{"name":"遗爱湖","id":666,"count":226}},{"type":"Feature","geometry":{"type":"Point","coordinates":[114.3008,30.6031]},"properties":{"name":"辛亥革命烈士公墓","id":667,"count":6}},{"type":"Feature","geometry":{"type":"Point","coordinates":[114.4162,30.5578]},"properties":{"name":"千帆亭","id":668,"count":4}},{"type":"Feature","geometry":{"type":"Point","coordinates":[114.431,30.4079]},"properties":{"name":"湿地公园","id":669,"count":3}},{"type":"Feature","geometry":{"type":"Point","coordinates":[115.9489,30.0829]},"properties":{"name":"黄梅县博物馆","id":670,"count":19}},{"type":"Feature","geometry":{"type":"Point","coordinates":[115.7826,31.1083]},"properties":{"name":"南武当山风景区","id":671,"count":1}},{"type":"Feature","geometry":{"type":"Point","coordinates":[114.3936,31.2481]},"properties":{"name":"木兰花乡景区花海区","id":672,"count":6}},{"type":"Feature","geometry":{"type":"Point","coordinates":[115.6285,31.0887]},"properties":{"name":"天堂湖景区","id":673,"count":20}},{"type":"Feature","geometry":{"type":"Point","coordinates":[114.512,30.5953]},"properties":{"name":"张公山寨严西湖生态园","id":674,"count":5}},{"type":"Feature","geometry":{"type":"Point","coordinates":[115.415,30.9783]},"properties":{"name":"老塔山","id":675,"count":20}},{"type":"Feature","geometry":{"type":"Point","coordinates":[114.2873,30.5614]},"properties":{"name":"龟山景区-电视塔","id":676,"count":5}},{"type":"Feature","geometry":{"type":"Point","coordinates":[115.8251,31.085]},"properties":{"name":"吴家山森林公园","id":677,"count":26}},{"type":"Feature","geometry":{"type":"Point","coordinates":[114.3097,30.5425]},"properties":{"name":"武汉首义园小吃街 ","id":678,"count":1}},{"type":"Feature","geometry":{"type":"Point","coordinates":[114.174,30.6232]},"properties":{"name":"武汉欢乐岛水上世界","id":679,"count":1}},{"type":"Feature","geometry":{"type":"Point","coordinates":[115.3627,30.0514]},"properties":{"name":"李时珍陵园","id":680,"count":29}},{"type":"Feature","geometry":{"type":"Point","coordinates":[114.2855,30.6686]},"properties":{"name":"热带洋流","id":681,"count":6}},{"type":"Feature","geometry":{"type":"Point","coordinates":[114.2002,30.5377]},"properties":{"name":"新区公园","id":682,"count":6}},{"type":"Feature","geometry":{"type":"Point","coordinates":[114.3245,30.6302]},"properties":{"name":"京汉铁路总工会旧址","id":683,"count":9}},{"type":"Feature","geometry":{"type":"Point","coordinates":[114.4174,30.6206]},"properties":{"name":"海绵科普展馆","id":684,"count":4}},{"type":"Feature","geometry":{"type":"Point","coordinates":[114.2849,30.6044]},"properties":{"name":"武汉市城市建设档案馆","id":685,"count":1}},{"type":"Feature","geometry":{"type":"Point","coordinates":[114.4159,30.5069]},"properties":{"name":"武汉星空失恋博物馆（光谷步行街旗舰店）","id":686,"count":0}},{"type":"Feature","geometry":{"type":"Point","coordinates":[115.0245,31.1866]},"properties":{"name":"麻城烈士陵园","id":687,"count":17}},{"type":"Feature","geometry":{"type":"Point","coordinates":[115.6671,30.7795]},"properties":{"name":"乌云山茶叶公园","id":688,"count":21}},{"type":"Feature","geometry":{"type":"Point","coordinates":[114.3584,30.5525]},"properties":{"name":"建国55周年建设和发展成就图片展","id":689,"count":9}},{"type":"Feature","geometry":{"type":"Point","coordinates":[114.3996,30.6515]},"properties":{"name":"临江公园","id":690,"count":8}},{"type":"Feature","geometry":{"type":"Point","coordinates":[114.9988,30.6441]},"properties":{"name":"林氏三兄弟故居","id":691,"count":18}},{"type":"Feature","geometry":{"type":"Point","coordinates":[115.9626,30.281]},"properties":{"name":"玫瑰谷水上乐园","id":692,"count":15}},{"type":"Feature","geometry":{"type":"Point","coordinates":[114.2758,30.5877]},"properties":{"name":"间客vr体验店","id":693,"count":7}},{"type":"Feature","geometry":{"type":"Point","coordinates":[114.3212,30.5563]},"properties":{"name":"翟雅阁博物馆","id":694,"count":8}},{"type":"Feature","geometry":{"type":"Point","coordinates":[114.4157,30.542]},"properties":{"name":"东湖杉美术馆","id":695,"count":10}},{"type":"Feature","geometry":{"type":"Point","coordinates":[115.094,31.1409]},"properties":{"name":"古孝感乡都生态旅游度假村","id":696,"count":40}},{"type":"Feature","geometry":{"type":"Point","coordinates":[114.3353,30.542]},"properties":{"name":"大树小虫展览","id":697,"count":1}},{"type":"Feature","geometry":{"type":"Point","coordinates":[115.9476,30.1905]},"properties":{"name":"五祖寺","id":698,"count":117}},{"type":"Feature","geometry":{"type":"Point","coordinates":[114.4241,30.6192]},"properties":{"name":"杨春湖","id":699,"count":4}},{"type":"Feature","geometry":{"type":"Point","coordinates":[114.2783,30.5533]},"properties":{"name":"显正街","id":700,"count":8}},{"type":"Feature","geometry":{"type":"Point","coordinates":[114.3675,30.2972]},"properties":{"name":"武汉翰林山越野营地","id":701,"count":0}},{"type":"Feature","geometry":{"type":"Point","coordinates":[115.6992,30.063]},"properties":{"name":"仙人湖水上乐园","id":702,"count":21}},{"type":"Feature","geometry":{"type":"Point","coordinates":[114.6418,31.5898]},"properties":{"name":"天台山风景区","id":703,"count":38}},{"type":"Feature","geometry":{"type":"Point","coordinates":[114.3789,30.5628]},"properties":{"name":"可竹轩","id":704,"count":8}},{"type":"Feature","geometry":{"type":"Point","coordinates":[114.8767,30.4618]},"properties":{"name":"东坡赤壁","id":705,"count":195}},{"type":"Feature","geometry":{"type":"Point","coordinates":[114.2815,30.5775]},"properties":{"name":"武汉1828武汉新天地地下风情街 ","id":706,"count":1}},{"type":"Feature","geometry":{"type":"Point","coordinates":[114.6487,31.4976]},"properties":{"name":"童子冲森林探险乐园","id":707,"count":24}},{"type":"Feature","geometry":{"type":"Point","coordinates":[115.533,30.4997]},"properties":{"name":"三角山四季滑雪场","id":708,"count":26}},{"type":"Feature","geometry":{"type":"Point","coordinates":[114.2884,30.6124]},"properties":{"name":"武汉市文物监管品市场 ","id":709,"count":1}},{"type":"Feature","geometry":{"type":"Point","coordinates":[115.2981,31.3801]},"properties":{"name":"狮子峰","id":710,"count":6}},{"type":"Feature","geometry":{"type":"Point","coordinates":[114.1753,30.6232]},"properties":{"name":"哈你运动馆","id":711,"count":4}},{"type":"Feature","geometry":{"type":"Point","coordinates":[114.2979,30.5727]},"properties":{"name":"龙王庙公园","id":712,"count":10}},{"type":"Feature","geometry":{"type":"Point","coordinates":[114.4164,30.5547]},"properties":{"name":"东湖桂花园","id":713,"count":7}},{"type":"Feature","geometry":{"type":"Point","coordinates":[114.2733,30.5711]},"properties":{"name":"救世堂","id":714,"count":12}},{"type":"Feature","geometry":{"type":"Point","coordinates":[115.6526,30.7159]},"properties":{"name":"英山四季花海景区","id":715,"count":128}},{"type":"Feature","geometry":{"type":"Point","coordinates":[114.1866,30.6291]},"properties":{"name":"竹叶海公园","id":716,"count":6}},{"type":"Feature","geometry":{"type":"Point","coordinates":[114.262,30.6092]},"properties":{"name":"优胜卡丁车馆","id":717,"count":2}},{"type":"Feature","geometry":{"type":"Point","coordinates":[114.3848,30.4602]},"properties":{"name":"韵湖公园","id":718,"count":5}},{"type":"Feature","geometry":{"type":"Point","coordinates":[114.4495,30.5201]},"properties":{"name":"凌霄阁","id":719,"count":6}},{"type":"Feature","geometry":{"type":"Point","coordinates":[114.4466,30.5318]},"properties":{"name":"猴山","id":720,"count":5}},{"type":"Feature","geometry":{"type":"Point","coordinates":[114.4408,30.5641]},"properties":{"name":"雁洲索桥","id":721,"count":7}},{"type":"Feature","geometry":{"type":"Point","coordinates":[114.3207,30.5558]},"properties":{"name":"圣诞堂","id":722,"count":1}},{"type":"Feature","geometry":{"type":"Point","coordinates":[115.8035,30.1247]},"properties":{"name":"黄梅四祖寺","id":723,"count":50}},{"type":"Feature","geometry":{"type":"Point","coordinates":[114.2956,31.0477]},"properties":{"name":"木兰叮当蝴蝶谷","id":724,"count":5}},{"type":"Feature","geometry":{"type":"Point","coordinates":[114.1992,30.5175]},"properties":{"name":"兔蹦反力舱主题公园","id":725,"count":1}},{"type":"Feature","geometry":{"type":"Point","coordinates":[114.2331,30.659]},"properties":{"name":"丽水佳园游泳馆","id":726,"count":5}},{"type":"Feature","geometry":{"type":"Point","coordinates":[114.3083,30.5936]},"properties":{"name":"季凡诺夫公馆","id":727,"count":9}},{"type":"Feature","geometry":{"type":"Point","coordinates":[115.5665,30.4926]},"properties":{"name":"湖北三角山旅游度假区","id":728,"count":110}},{"type":"Feature","geometry":{"type":"Point","coordinates":[114.3012,31.0606]},"properties":{"name":"泥河水库","id":729,"count":5}},{"type":"Feature","geometry":{"type":"Point","coordinates":[114.4015,30.5994]},"properties":{"name":"蒙地卡罗赛道","id":730,"count":4}},{"type":"Feature","geometry":{"type":"Point","coordinates":[115.8399,31.0941]},"properties":{"name":"湖北英山大别山南武当旅游区","id":731,"count":138}},{"type":"Feature","geometry":{"type":"Point","coordinates":[114.3601,30.5547]},"properties":{"name":"放鹰台遗址","id":732,"count":11}},{"type":"Feature","geometry":{"type":"Point","coordinates":[114.4193,30.5596]},"properties":{"name":"楚文化馆","id":733,"count":5}},{"type":"Feature","geometry":{"type":"Point","coordinates":[114.3071,30.5859]},"properties":{"name":"时空港VR主题乐园","id":734,"count":3}},{"type":"Feature","geometry":{"type":"Point","coordinates":[115.1668,31.4008]},"properties":{"name":"桐枧冲瀑布群风景区","id":735,"count":357}},{"type":"Feature","geometry":{"type":"Point","coordinates":[116.0279,30.9913]},"properties":{"name":"桃花冲森林公园","id":736,"count":112}},{"type":"Feature","geometry":{"type":"Point","coordinates":[114.3474,30.3706]},"properties":{"name":"江夏区大花山","id":737,"count":4}},{"type":"Feature","geometry":{"type":"Point","coordinates":[114.3074,30.5508]},"properties":{"name":"胜像宝塔","id":738,"count":4}},{"type":"Feature","geometry":{"type":"Point","coordinates":[114.248,30.5675]},"properties":{"name":"张之洞与汉阳铁厂博物馆","id":739,"count":4}},{"type":"Feature","geometry":{"type":"Point","coordinates":[114.3993,30.6003]},"properties":{"name":"极速穿越","id":740,"count":5}},{"type":"Feature","geometry":{"type":"Point","coordinates":[114.5468,31.1108]},"properties":{"name":"帝王湖观光景区","id":741,"count":18}},{"type":"Feature","geometry":{"type":"Point","coordinates":[114.2898,30.5591]},"properties":{"name":"竹韵堂竹雕博物馆","id":742,"count":2}},{"type":"Feature","geometry":{"type":"Point","coordinates":[114.1489,30.7332]},"properties":{"name":"柏泉天主堂","id":743,"count":10}},{"type":"Feature","geometry":{"type":"Point","coordinates":[114.2309,30.6297]},"properties":{"name":"自然探险部落","id":744,"count":0}},{"type":"Feature","geometry":{"type":"Point","coordinates":[114.2911,30.5627]},"properties":{"name":"洗马长街","id":745,"count":7}},{"type":"Feature","geometry":{"type":"Point","coordinates":[114.3788,30.5588]},"properties":{"name":"先月亭","id":746,"count":9}},{"type":"Feature","geometry":{"type":"Point","coordinates":[114.922,30.4943]},"properties":{"name":"嗨派蛙水乐园","id":747,"count":25}},{"type":"Feature","geometry":{"type":"Point","coordinates":[114.5105,30.595]},"properties":{"name":"张公山寨李庄民俗文化博物馆","id":748,"count":6}},{"type":"Feature","geometry":{"type":"Point","coordinates":[114.2777,30.5928]},"properties":{"name":"汉口中山公园 ","id":749,"count":1}},{"type":"Feature","geometry":{"type":"Point","coordinates":[114.2776,30.5858]},"properties":{"name":"武汉广场","id":750,"count":4}},{"type":"Feature","geometry":{"type":"Point","coordinates":[114.2919,30.5685]},"properties":{"name":"晴川桥","id":751,"count":9}},{"type":"Feature","geometry":{"type":"Point","coordinates":[114.305,30.5557]},"properties":{"name":"中国共产党纪律建设历史陈列馆","id":752,"count":1}},{"type":"Feature","geometry":{"type":"Point","coordinates":[114.366,30.5357]},"properties":{"name":"德仁广场","id":753,"count":7}},{"type":"Feature","geometry":{"type":"Point","coordinates":[114.4176,30.5516]},"properties":{"name":"东湖磨山樱花园","id":754,"count":4}},{"type":"Feature","geometry":{"type":"Point","coordinates":[114.2992,30.5921]},"properties":{"name":"汉口中共中央宣传部旧址","id":755,"count":3}},{"type":"Feature","geometry":{"type":"Point","coordinates":[114.3402,30.5667]},"properties":{"name":"云旅游客厅","id":756,"count":1}},{"type":"Feature","geometry":{"type":"Point","coordinates":[114.4943,30.5196]},"properties":{"name":"石门峰纪念公园","id":757,"count":2}},{"type":"Feature","geometry":{"type":"Point","coordinates":[114.3683,30.5262]},"properties":{"name":"华中师范大学文物馆","id":758,"count":3}},{"type":"Feature","geometry":{"type":"Point","coordinates":[114.2979,30.5844]},"properties":{"name":"平安大厦","id":759,"count":1}},{"type":"Feature","geometry":{"type":"Point","coordinates":[115.0508,30.601]},"properties":{"name":"陈潭秋故居纪念馆","id":760,"count":12}},{"type":"Feature","geometry":{"type":"Point","coordinates":[114.3129,30.5479]},"properties":{"name":"武昌起义史迹陈列","id":761,"count":2}},{"type":"Feature","geometry":{"type":"Point","coordinates":[114.4468,30.289]},"properties":{"name":"当代薰衣草广场","id":762,"count":2}},{"type":"Feature","geometry":{"type":"Point","coordinates":[114.2023,30.6142]},"properties":{"name":"河昌公园","id":763,"count":4}},{"type":"Feature","geometry":{"type":"Point","coordinates":[114.5327,30.5068]},"properties":{"name":"兰亭公园","id":764,"count":2}},